{"type": "FeatureCollection", "features": [{"type": "Feature", "geometry": {"type": "Point", "coordinates": [2.1801069, 41.3979779]}, "properties": {"station_id": "1", "name": "GRAN VIA CORTS CATALANES, 760", "capacity": 45, "config": "ELECTRICBIKESTATION", "barri_codi": "0205", "barri_nom": "el Fort Pienc", "district": "Eixample", "status": "IN_SERVICE", "mechanical": 2, "ebike": 0, "total": 2, "docks_available": 39, "bikes_disabled": 4, "docks_disabled": 0, "pct_bikes": 4.44, "pct_docks_free": 86.67}}, {"type": "Feature", "geometry": {"type": "Point", "coordinates": [2.1436235, 41.3467746]}, "properties": {"station_id": "10", "name": "C/ 60, NÚMERO 25", "capacity": 43, "config": "ELECTRICBIKESTATION", "barri_codi": "0312", "barri_nom": "la Marina del Prat Vermell", "district": "Sants-Montjuïc", "status": "IN_SERVICE", "mechanical": 0, "ebike": 3, "total": 3, "docks_available": 36, "bikes_disabled": 2, "docks_disabled": 2, "pct_bikes": 6.98, "pct_docks_free": 83.72}}, {"type": "Feature", "geometry": {"type": "Point", "coordinates": [2.143868, 41.379363]}, "properties": {"station_id": "100", "name": "C/ TARRAGONA,  159-173", "capacity": 22, "config": "ELECTRICBIKESTATION", "barri_codi": "0315", "barri_nom": "Hostafrancs", "district": "Sants-Montjuïc", "status": "IN_SERVICE", "mechanical": 2, "ebike": 2, "total": 4, "docks_available": 18, "bikes_disabled": 0, "docks_disabled": 0, "pct_bikes": 18.18, "pct_docks_free": 81.82}}, {"type": "Feature", "geometry": {"type": "Point", "coordinates": [2.143411, 41.392878]}, "properties": {"station_id": "101", "name": "AV. DIAGONAL, 602", "capacity": 23, "config": "ELECTRICBIKESTATION", "barri_codi": "0526", "barri_nom": "Sant Gervasi - Galvany", "district": "Sarrià-Sant Gervasi", "status": "IN_SERVICE", "mechanical": 0, "ebike": 0, "total": 0, "docks_available": 18, "bikes_disabled": 5, "docks_disabled": 0, "pct_bikes": 0.0, "pct_docks_free": 78.26}}, {"type": "Feature", "geometry": {"type": "Point", "coordinates": [2.1422174, 41.392567]}, "properties": {"station_id": "102", "name": "AV. DIAGONAL,  612", "capacity": 24, "config": "ELECTRICBIKESTATION", "barri_codi": "0526", "barri_nom": "Sant Gervasi - Galvany", "district": "Sarrià-Sant Gervasi", "status": "IN_SERVICE", "mechanical": 0, "ebike": 1, "total": 1, "docks_available": 23, "bikes_disabled": 1, "docks_disabled": 0, "pct_bikes": 4.17, "pct_docks_free": 95.83}}, {"type": "Feature", "geometry": {"type": "Point", "coordinates": [2.1884487, 41.410098]}, "properties": {"station_id": "103", "name": "C/ ARAGÓ, 629", "capacity": 21, "config": "ELECTRICBIKESTATION", "barri_codi": "1065", "barri_nom": "el Clot", "district": "Sant Martí", "status": "IN_SERVICE", "mechanical": 8, "ebike": 5, "total": 13, "docks_available": 5, "bikes_disabled": 4, "docks_disabled": 0, "pct_bikes": 61.9, "pct_docks_free": 23.81}}, {"type": "Feature", "geometry": {"type": "Point", "coordinates": [2.17425, 41.389492]}, "properties": {"station_id": "105", "name": "RDA. DE SANT PERE, 26", "capacity": 21, "config": "ELECTRICBIKESTATION", "barri_codi": "0207", "barri_nom": "la Dreta de l'Eixample", "district": "Eixample", "status": "IN_SERVICE", "mechanical": 1, "ebike": 0, "total": 1, "docks_available": 18, "bikes_disabled": 2, "docks_disabled": 0, "pct_bikes": 4.76, "pct_docks_free": 85.71}}, {"type": "Feature", "geometry": {"type": "Point", "coordinates": [2.1622548, 41.4055198]}, "properties": {"station_id": "106", "name": "PL JOANIC - C / BRUNIQUER, 59", "capacity": 20, "config": "ELECTRICBIKESTATION", "barri_codi": "0631", "barri_nom": "la Vila de Gràcia", "district": "Gràcia", "status": "IN_SERVICE", "mechanical": 0, "ebike": 5, "total": 5, "docks_available": 7, "bikes_disabled": 8, "docks_disabled": 0, "pct_bikes": 25.0, "pct_docks_free": 35.0}}, {"type": "Feature", "geometry": {"type": "Point", "coordinates": [2.1531031, 41.3982304]}, "properties": {"station_id": "107", "name": "TRAV. DE GRÀCIA, 92 / VIA AUGUSTA", "capacity": 20, "config": "ELECTRICBIKESTATION", "barri_codi": "0526", "barri_nom": "Sant Gervasi - Galvany", "district": "Sarrià-Sant Gervasi", "status": "IN_SERVICE", "mechanical": 0, "ebike": 2, "total": 2, "docks_available": 15, "bikes_disabled": 3, "docks_disabled": 0, "pct_bikes": 10.0, "pct_docks_free": 75.0}}, {"type": "Feature", "geometry": {"type": "Point", "coordinates": [2.1649035, 41.4022081]}, "properties": {"station_id": "108", "name": "C / INDÚSTRIA, 10", "capacity": 21, "config": "ELECTRICBIKESTATION", "barri_codi": "0632", "barri_nom": "el Camp d'en Grassot i Gràcia Nova", "district": "Gràcia", "status": "IN_SERVICE", "mechanical": 0, "ebike": 4, "total": 3, "docks_available": 11, "bikes_disabled": 5, "docks_disabled": 0, "pct_bikes": 14.29, "pct_docks_free": 52.38}}, {"type": "Feature", "geometry": {"type": "Point", "coordinates": [2.1476308, 41.3912605]}, "properties": {"station_id": "109", "name": "C/ LONDRES,  53", "capacity": 24, "config": "ELECTRICBIKESTATION", "barri_codi": "0208", "barri_nom": "l'Antiga Esquerra de l'Eixample", "district": "Eixample", "status": "IN_SERVICE", "mechanical": 0, "ebike": 0, "total": 0, "docks_available": 21, "bikes_disabled": 2, "docks_disabled": 1, "pct_bikes": 0.0, "pct_docks_free": 87.5}}, {"type": "Feature", "geometry": {"type": "Point", "coordinates": [2.194327527612696, 41.38238190000199]}, "properties": {"station_id": "11", "name": "PG. MARITIM, 11 (DAVANT PL. BRUGADA)", "capacity": 35, "config": "ELECTRICBIKESTATION", "barri_codi": "0103", "barri_nom": "la Barceloneta", "district": "Ciutat Vella", "status": "IN_SERVICE", "mechanical": 12, "ebike": 0, "total": 12, "docks_available": 22, "bikes_disabled": 1, "docks_disabled": 0, "pct_bikes": 34.29, "pct_docks_free": 62.86}}, {"type": "Feature", "geometry": {"type": "Point", "coordinates": [2.155089, 41.3852585]}, "properties": {"station_id": "110", "name": "AV. ROMA,  136", "capacity": 16, "config": "ELECTRICBIKESTATION", "barri_codi": "0208", "barri_nom": "l'Antiga Esquerra de l'Eixample", "district": "Eixample", "status": "IN_SERVICE", "mechanical": 0, "ebike": 0, "total": 0, "docks_available": 15, "bikes_disabled": 1, "docks_disabled": 0, "pct_bikes": 0.0, "pct_docks_free": 93.75}}, {"type": "Feature", "geometry": {"type": "Point", "coordinates": [2.1546746, 41.3847528]}, "properties": {"station_id": "111", "name": "C/ ARAGÓ 147", "capacity": 19, "config": "ELECTRICBIKESTATION", "barri_codi": "0209", "barri_nom": "la Nova Esquerra de l'Eixample", "district": "Eixample", "status": "IN_SERVICE", "mechanical": 1, "ebike": 1, "total": 2, "docks_available": 14, "bikes_disabled": 3, "docks_disabled": 0, "pct_bikes": 10.53, "pct_docks_free": 73.68}}, {"type": "Feature", "geometry": {"type": "Point", "coordinates": [2.157233, 41.3776721]}, "properties": {"station_id": "112", "name": "C/ FLORIDABLANCA,  49", "capacity": 20, "config": "ELECTRICBIKESTATION", "barri_codi": "0210", "barri_nom": "Sant Antoni", "district": "Eixample", "status": "IN_SERVICE", "mechanical": 14, "ebike": 3, "total": 17, "docks_available": 2, "bikes_disabled": 1, "docks_disabled": 0, "pct_bikes": 85.0, "pct_docks_free": 10.0}}, {"type": "Feature", "geometry": {"type": "Point", "coordinates": [2.1646742, 41.3773113]}, "properties": {"station_id": "113", "name": "RONDA DE SANT PAU , 51", "capacity": 33, "config": "ELECTRICBIKESTATION", "barri_codi": "0210", "barri_nom": "Sant Antoni", "district": "Eixample", "status": "IN_SERVICE", "mechanical": 10, "ebike": 2, "total": 12, "docks_available": 14, "bikes_disabled": 6, "docks_disabled": 1, "pct_bikes": 36.36, "pct_docks_free": 42.42}}, {"type": "Feature", "geometry": {"type": "Point", "coordinates": [2.1740082, 41.376735]}, "properties": {"station_id": "114", "name": "PL. JEAN GENET,  1", "capacity": 20, "config": "ELECTRICBIKESTATION", "barri_codi": "0101", "barri_nom": "el Raval", "district": "Ciutat Vella", "status": "IN_SERVICE", "mechanical": 11, "ebike": 2, "total": 13, "docks_available": 2, "bikes_disabled": 5, "docks_disabled": 0, "pct_bikes": 65.0, "pct_docks_free": 10.0}}, {"type": "Feature", "geometry": {"type": "Point", "coordinates": [2.184171, 41.383597]}, "properties": {"station_id": "115", "name": "AV. MARQUÉS DE L'ARGENTERA,  3", "capacity": 21, "config": "ELECTRICBIKESTATION", "barri_codi": "0104", "barri_nom": "Sant Pere, Santa Caterina i la Ribera", "district": "Ciutat Vella", "status": "IN_SERVICE", "mechanical": 12, "ebike": 0, "total": 12, "docks_available": 6, "bikes_disabled": 3, "docks_disabled": 0, "pct_bikes": 57.14, "pct_docks_free": 28.57}}, {"type": "Feature", "geometry": {"type": "Point", "coordinates": [2.1914756, 41.3838369]}, "properties": {"station_id": "116", "name": "C/ DEL DR. AIGUADER, 72 / PG. SALVAT", "capacity": 34, "config": "ELECTRICBIKESTATION", "barri_codi": "0103", "barri_nom": "la Barceloneta", "district": "Ciutat Vella", "status": "IN_SERVICE", "mechanical": 4, "ebike": 0, "total": 4, "docks_available": 29, "bikes_disabled": 1, "docks_disabled": 0, "pct_bikes": 11.76, "pct_docks_free": 85.29}}, {"type": "Feature", "geometry": {"type": "Point", "coordinates": [2.1972309, 41.3906051]}, "properties": {"station_id": "117", "name": "C/ ROSA SENSAT, 12", "capacity": 21, "config": "ELECTRICBIKESTATION", "barri_codi": "1067", "barri_nom": "la Vila Olímpica del Poblenou", "district": "Sant Martí", "status": "IN_SERVICE", "mechanical": 8, "ebike": 2, "total": 10, "docks_available": 8, "bikes_disabled": 3, "docks_disabled": 0, "pct_bikes": 47.62, "pct_docks_free": 38.1}}, {"type": "Feature", "geometry": {"type": "Point", "coordinates": [2.1874966, 41.39212]}, "properties": {"station_id": "118", "name": "C/ PUJADES,  3", "capacity": 27, "config": "ELECTRICBIKESTATION", "barri_codi": "1066", "barri_nom": "el Parc i la Llacuna del Poblenou", "district": "Sant Martí", "status": "IN_SERVICE", "mechanical": 16, "ebike": 8, "total": 23, "docks_available": 2, "bikes_disabled": 0, "docks_disabled": 1, "pct_bikes": 85.19, "pct_docks_free": 7.41}}, {"type": "Feature", "geometry": {"type": "Point", "coordinates": [2.1825085, 41.3967169]}, "properties": {"station_id": "119", "name": "C/ SARDENYA,  178", "capacity": 39, "config": "ELECTRICBIKESTATION", "barri_codi": "0205", "barri_nom": "el Fort Pienc", "district": "Eixample", "status": "IN_SERVICE", "mechanical": 7, "ebike": 1, "total": 8, "docks_available": 30, "bikes_disabled": 1, "docks_disabled": 0, "pct_bikes": 20.51, "pct_docks_free": 76.92}}, {"type": "Feature", "geometry": {"type": "Point", "coordinates": [2.1950251491431994, 41.38344982366699]}, "properties": {"station_id": "12", "name": "PG. MARITIM, 23 (HOSPITAL DEL MAR)", "capacity": 26, "config": "ELECTRICBIKESTATION", "barri_codi": "0103", "barri_nom": "la Barceloneta", "district": "Ciutat Vella", "status": "IN_SERVICE", "mechanical": 8, "ebike": 1, "total": 9, "docks_available": 14, "bikes_disabled": 3, "docks_disabled": 0, "pct_bikes": 34.62, "pct_docks_free": 53.85}}, {"type": "Feature", "geometry": {"type": "Point", "coordinates": [2.1765126, 41.4047056]}, "properties": {"station_id": "120", "name": "C/ LEPANT,  278", "capacity": 21, "config": "ELECTRICBIKESTATION", "barri_codi": "0206", "barri_nom": "la Sagrada Família", "district": "Eixample", "status": "IN_SERVICE", "mechanical": 0, "ebike": 0, "total": 0, "docks_available": 18, "bikes_disabled": 3, "docks_disabled": 0, "pct_bikes": 0.0, "pct_docks_free": 85.71}}, {"type": "Feature", "geometry": {"type": "Point", "coordinates": [2.1785364, 41.4064529]}, "properties": {"station_id": "121", "name": "C/ CASTILLEJOS, 258", "capacity": 21, "config": "ELECTRICBIKESTATION", "barri_codi": "0206", "barri_nom": "la Sagrada Família", "district": "Eixample", "status": "IN_SERVICE", "mechanical": 0, "ebike": 5, "total": 4, "docks_available": 12, "bikes_disabled": 4, "docks_disabled": 0, "pct_bikes": 19.05, "pct_docks_free": 57.14}}, {"type": "Feature", "geometry": {"type": "Point", "coordinates": [2.1663172, 41.4054458]}, "properties": {"station_id": "122", "name": "C/ NÀPOLS, 344", "capacity": 33, "config": "ELECTRICBIKESTATION", "barri_codi": "0632", "barri_nom": "el Camp d'en Grassot i Gràcia Nova", "district": "Gràcia", "status": "IN_SERVICE", "mechanical": 0, "ebike": 4, "total": 4, "docks_available": 17, "bikes_disabled": 4, "docks_disabled": 8, "pct_bikes": 12.12, "pct_docks_free": 51.52}}, {"type": "Feature", "geometry": {"type": "Point", "coordinates": [2.166735224916682, 41.3988184485363]}, "properties": {"station_id": "123", "name": "C/ PROVENÇA, 317", "capacity": 21, "config": "ELECTRICBIKESTATION", "barri_codi": "0207", "barri_nom": "la Dreta de l'Eixample", "district": "Eixample", "status": "IN_SERVICE", "mechanical": 1, "ebike": 2, "total": 2, "docks_available": 8, "bikes_disabled": 10, "docks_disabled": 0, "pct_bikes": 9.52, "pct_docks_free": 38.1}}, {"type": "Feature", "geometry": {"type": "Point", "coordinates": [2.1878126, 41.3702483]}, "properties": {"station_id": "124", "name": "C/ NOVA  BOCANA", "capacity": 31, "config": "ELECTRICBIKESTATION", "barri_codi": "0103", "barri_nom": "la Barceloneta", "district": "Ciutat Vella", "status": "IN_SERVICE", "mechanical": 10, "ebike": 1, "total": 11, "docks_available": 20, "bikes_disabled": 0, "docks_disabled": 0, "pct_bikes": 35.48, "pct_docks_free": 64.52}}, {"type": "Feature", "geometry": {"type": "Point", "coordinates": [2.1950716172313767, 41.38353466772476]}, "properties": {"station_id": "125", "name": "PG. MARíTIM, 31 B (ANNEXA A LA 12)", "capacity": 29, "config": "ELECTRICBIKESTATION", "barri_codi": "0103", "barri_nom": "la Barceloneta", "district": "Ciutat Vella", "status": "IN_SERVICE", "mechanical": 4, "ebike": 0, "total": 4, "docks_available": 23, "bikes_disabled": 2, "docks_disabled": 0, "pct_bikes": 13.79, "pct_docks_free": 79.31}}, {"type": "Feature", "geometry": {"type": "Point", "coordinates": [2.1822815, 41.380628]}, "properties": {"station_id": "126", "name": "PG. DE COLOM /VIA LAIETANA", "capacity": 23, "config": "ELECTRICBIKESTATION", "barri_codi": "0102", "barri_nom": "el Barri Gòtic", "district": "Ciutat Vella", "status": "IN_SERVICE", "mechanical": 17, "ebike": 5, "total": 22, "docks_available": 0, "bikes_disabled": 1, "docks_disabled": 0, "pct_bikes": 95.65, "pct_docks_free": 0.0}}, {"type": "Feature", "geometry": {"type": "Point", "coordinates": [2.1907524, 41.4120681]}, "properties": {"station_id": "127", "name": "C/ ARAGÓ, 659 / NAVAS DE TOLOSA", "capacity": 27, "config": "ELECTRICBIKESTATION", "barri_codi": "1065", "barri_nom": "el Clot", "district": "Sant Martí", "status": "IN_SERVICE", "mechanical": 14, "ebike": 6, "total": 20, "docks_available": 2, "bikes_disabled": 5, "docks_disabled": 0, "pct_bikes": 74.07, "pct_docks_free": 7.41}}, {"type": "Feature", "geometry": {"type": "Point", "coordinates": [2.1959771, 41.4158412]}, "properties": {"station_id": "128", "name": "RAMBLA DE GUIPÚSCOA, 43/FLUVIA", "capacity": 43, "config": "ELECTRICBIKESTATION", "barri_codi": "1072", "barri_nom": "Sant Martí de Provençals", "district": "Sant Martí", "status": "IN_SERVICE", "mechanical": 11, "ebike": 1, "total": 12, "docks_available": 23, "bikes_disabled": 7, "docks_disabled": 1, "pct_bikes": 27.91, "pct_docks_free": 53.49}}, {"type": "Feature", "geometry": {"type": "Point", "coordinates": [2.16113608, 41.377046]}, "properties": {"station_id": "129", "name": "C/ MANSO, 46", "capacity": 23, "config": "ELECTRICBIKESTATION", "barri_codi": "0210", "barri_nom": "Sant Antoni", "district": "Eixample", "status": "IN_SERVICE", "mechanical": 7, "ebike": 4, "total": 11, "docks_available": 11, "bikes_disabled": 0, "docks_disabled": 1, "pct_bikes": 47.83, "pct_docks_free": 47.83}}, {"type": "Feature", "geometry": {"type": "Point", "coordinates": [2.195551, 41.388143]}, "properties": {"station_id": "13", "name": "C/ MARINA, 25-33", "capacity": 46, "config": "ELECTRICBIKESTATION", "barri_codi": "1067", "barri_nom": "la Vila Olímpica del Poblenou", "district": "Sant Martí", "status": "IN_SERVICE", "mechanical": 16, "ebike": 1, "total": 17, "docks_available": 26, "bikes_disabled": 3, "docks_disabled": 0, "pct_bikes": 36.96, "pct_docks_free": 56.52}}, {"type": "Feature", "geometry": {"type": "Point", "coordinates": [2.2016699, 41.4200135]}, "properties": {"station_id": "130", "name": "RAMBLA DE GUIPÚSCOA, 103 / CANTÀBRIA", "capacity": 24, "config": "ELECTRICBIKESTATION", "barri_codi": "1073", "barri_nom": "la Verneda i la Pau", "district": "Sant Martí", "status": "IN_SERVICE", "mechanical": 13, "ebike": 8, "total": 21, "docks_available": 2, "bikes_disabled": 1, "docks_disabled": 0, "pct_bikes": 87.5, "pct_docks_free": 8.33}}, {"type": "Feature", "geometry": {"type": "Point", "coordinates": [2.20603, 41.42284]}, "properties": {"station_id": "131", "name": "RBLA. GUIPÚSCOA, 158", "capacity": 29, "config": "ELECTRICBIKESTATION", "barri_codi": "1073", "barri_nom": "la Verneda i la Pau", "district": "Sant Martí", "status": "IN_SERVICE", "mechanical": 11, "ebike": 2, "total": 12, "docks_available": 11, "bikes_disabled": 5, "docks_disabled": 0, "pct_bikes": 41.38, "pct_docks_free": 37.93}}, {"type": "Feature", "geometry": {"type": "Point", "coordinates": [2.192042, 41.4084796]}, "properties": {"station_id": "132", "name": "PL. VALENTÍ ALMIRALL", "capacity": 27, "config": "ELECTRICBIKESTATION", "barri_codi": "1065", "barri_nom": "el Clot", "district": "Sant Martí", "status": "IN_SERVICE", "mechanical": 20, "ebike": 2, "total": 21, "docks_available": 2, "bikes_disabled": 3, "docks_disabled": 0, "pct_bikes": 77.78, "pct_docks_free": 7.41}}, {"type": "Feature", "geometry": {"type": "Point", "coordinates": [2.1987258, 41.4113024]}, "properties": {"station_id": "134", "name": "C/ BAC DE RODA, 157", "capacity": 21, "config": "ELECTRICBIKESTATION", "barri_codi": "1071", "barri_nom": "Provençals del Poblenou", "district": "Sant Martí", "status": "IN_SERVICE", "mechanical": 7, "ebike": 9, "total": 16, "docks_available": 4, "bikes_disabled": 1, "docks_disabled": 0, "pct_bikes": 76.19, "pct_docks_free": 19.05}}, {"type": "Feature", "geometry": {"type": "Point", "coordinates": [2.1972673, 41.4120452]}, "properties": {"station_id": "135", "name": "GRAN VIA DE LES CORTS CATALANES,  981", "capacity": 21, "config": "ELECTRICBIKESTATION", "barri_codi": "1072", "barri_nom": "Sant Martí de Provençals", "district": "Sant Martí", "status": "IN_SERVICE", "mechanical": 10, "ebike": 8, "total": 17, "docks_available": 1, "bikes_disabled": 2, "docks_disabled": 0, "pct_bikes": 80.95, "pct_docks_free": 4.76}}, {"type": "Feature", "geometry": {"type": "Point", "coordinates": [2.2017955, 41.4139298]}, "properties": {"station_id": "136", "name": "GRAN VIA DE LES CORTS CATALANES,  1062", "capacity": 31, "config": "ELECTRICBIKESTATION", "barri_codi": "1071", "barri_nom": "Provençals del Poblenou", "district": "Sant Martí", "status": "IN_SERVICE", "mechanical": 7, "ebike": 1, "total": 8, "docks_available": 20, "bikes_disabled": 3, "docks_disabled": 0, "pct_bikes": 25.81, "pct_docks_free": 64.52}}, {"type": "Feature", "geometry": {"type": "Point", "coordinates": [2.2008139, 41.4145805]}, "properties": {"station_id": "137", "name": "GRAN VIA DE LES CORTS CATALANES , 1041", "capacity": 25, "config": "ELECTRICBIKESTATION", "barri_codi": "1072", "barri_nom": "Sant Martí de Provençals", "district": "Sant Martí", "status": "IN_SERVICE", "mechanical": 5, "ebike": 1, "total": 6, "docks_available": 17, "bikes_disabled": 2, "docks_disabled": 0, "pct_bikes": 24.0, "pct_docks_free": 68.0}}, {"type": "Feature", "geometry": {"type": "Point", "coordinates": [2.2058345, 41.4167933]}, "properties": {"station_id": "138", "name": "GRAN VIA DE LES CORTS CATALANES,  1118", "capacity": 21, "config": "ELECTRICBIKESTATION", "barri_codi": "1071", "barri_nom": "Provençals del Poblenou", "district": "Sant Martí", "status": "IN_SERVICE", "mechanical": 11, "ebike": 0, "total": 11, "docks_available": 8, "bikes_disabled": 1, "docks_disabled": 0, "pct_bikes": 52.38, "pct_docks_free": 38.1}}, {"type": "Feature", "geometry": {"type": "Point", "coordinates": [2.2058133, 41.4183999]}, "properties": {"station_id": "139", "name": "GRAN VIA DE LES CORTS CATALANES,  1131", "capacity": 35, "config": "ELECTRICBIKESTATION", "barri_codi": "1073", "barri_nom": "la Verneda i la Pau", "district": "Sant Martí", "status": "IN_SERVICE", "mechanical": 26, "ebike": 4, "total": 30, "docks_available": 0, "bikes_disabled": 4, "docks_disabled": 0, "pct_bikes": 85.71, "pct_docks_free": 0.0}}, {"type": "Feature", "geometry": {"type": "Point", "coordinates": [2.185085, 41.384844]}, "properties": {"station_id": "14", "name": "AV. MARQUÉS DE  L'ARGENTERA, 15", "capacity": 26, "config": "ELECTRICBIKESTATION", "barri_codi": "0104", "barri_nom": "Sant Pere, Santa Caterina i la Ribera", "district": "Ciutat Vella", "status": "IN_SERVICE", "mechanical": 5, "ebike": 0, "total": 5, "docks_available": 18, "bikes_disabled": 3, "docks_disabled": 0, "pct_bikes": 19.23, "pct_docks_free": 69.23}}, {"type": "Feature", "geometry": {"type": "Point", "coordinates": [2.1559939, 41.3808772]}, "properties": {"station_id": "140", "name": "C/ VILADOMAT,  122", "capacity": 27, "config": "ELECTRICBIKESTATION", "barri_codi": "0209", "barri_nom": "la Nova Esquerra de l'Eixample", "district": "Eixample", "status": "IN_SERVICE", "mechanical": 8, "ebike": 4, "total": 12, "docks_available": 11, "bikes_disabled": 4, "docks_disabled": 0, "pct_bikes": 44.44, "pct_docks_free": 40.74}}, {"type": "Feature", "geometry": {"type": "Point", "coordinates": [2.1954152, 41.4090202]}, "properties": {"station_id": "141", "name": "C/ BILBAO, 174", "capacity": 32, "config": "ELECTRICBIKESTATION", "barri_codi": "1071", "barri_nom": "Provençals del Poblenou", "district": "Sant Martí", "status": "IN_SERVICE", "mechanical": 24, "ebike": 4, "total": 28, "docks_available": 2, "bikes_disabled": 2, "docks_disabled": 0, "pct_bikes": 87.5, "pct_docks_free": 6.25}}, {"type": "Feature", "geometry": {"type": "Point", "coordinates": [2.1924144, 41.4003793]}, "properties": {"station_id": "142", "name": "C/ SANCHO DE ÁVILA,  104 - C/ BADAJOZ", "capacity": 52, "config": "ELECTRICBIKESTATION", "barri_codi": "1066", "barri_nom": "el Parc i la Llacuna del Poblenou", "district": "Sant Martí", "status": "IN_SERVICE", "mechanical": 17, "ebike": 1, "total": 18, "docks_available": 32, "bikes_disabled": 2, "docks_disabled": 0, "pct_bikes": 34.62, "pct_docks_free": 61.54}}, {"type": "Feature", "geometry": {"type": "Point", "coordinates": [2.1956161, 41.4027907]}, "properties": {"station_id": "143", "name": "C/ SANCHO DE ÁVILA, 170 / LLACUNA", "capacity": 27, "config": "ELECTRICBIKESTATION", "barri_codi": "1066", "barri_nom": "el Parc i la Llacuna del Poblenou", "district": "Sant Martí", "status": "IN_SERVICE", "mechanical": 11, "ebike": 9, "total": 20, "docks_available": 3, "bikes_disabled": 4, "docks_disabled": 0, "pct_bikes": 74.07, "pct_docks_free": 11.11}}, {"type": "Feature", "geometry": {"type": "Point", "coordinates": [2.1977119, 41.4056269]}, "properties": {"station_id": "144", "name": "C/ CASTELLA,  28 / DIAGONAL", "capacity": 27, "config": "ELECTRICBIKESTATION", "barri_codi": "1068", "barri_nom": "el Poblenou", "district": "Sant Martí", "status": "IN_SERVICE", "mechanical": 12, "ebike": 5, "total": 17, "docks_available": 8, "bikes_disabled": 2, "docks_disabled": 0, "pct_bikes": 62.96, "pct_docks_free": 29.63}}, {"type": "Feature", "geometry": {"type": "Point", "coordinates": [2.20256009388315, 41.409966627863774]}, "properties": {"station_id": "145", "name": "C/ MARROC, 103", "capacity": 27, "config": "ELECTRICBIKESTATION", "barri_codi": "1071", "barri_nom": "Provençals del Poblenou", "district": "Sant Martí", "status": "IN_SERVICE", "mechanical": 2, "ebike": 2, "total": 4, "docks_available": 21, "bikes_disabled": 2, "docks_disabled": 0, "pct_bikes": 14.81, "pct_docks_free": 77.78}}, {"type": "Feature", "geometry": {"type": "Point", "coordinates": [2.207186, 41.4148983]}, "properties": {"station_id": "146", "name": "C/ PERE IV, 488", "capacity": 24, "config": "ELECTRICBIKESTATION", "barri_codi": "1071", "barri_nom": "Provençals del Poblenou", "district": "Sant Martí", "status": "IN_SERVICE", "mechanical": 8, "ebike": 1, "total": 9, "docks_available": 14, "bikes_disabled": 1, "docks_disabled": 0, "pct_bikes": 37.5, "pct_docks_free": 58.33}}, {"type": "Feature", "geometry": {"type": "Point", "coordinates": [2.2124993, 41.416043]}, "properties": {"station_id": "147", "name": "RAMBLA PRIM, 79", "capacity": 33, "config": "ELECTRICBIKESTATION", "barri_codi": "1070", "barri_nom": "el Besòs i el Maresme", "district": "Sant Martí", "status": "IN_SERVICE", "mechanical": 22, "ebike": 3, "total": 25, "docks_available": 4, "bikes_disabled": 3, "docks_disabled": 0, "pct_bikes": 75.76, "pct_docks_free": 12.12}}, {"type": "Feature", "geometry": {"type": "Point", "coordinates": [2.1633139, 41.3783467]}, "properties": {"station_id": "148", "name": "RONDA SANT PAU, 79", "capacity": 27, "config": "ELECTRICBIKESTATION", "barri_codi": "0210", "barri_nom": "Sant Antoni", "district": "Eixample", "status": "IN_SERVICE", "mechanical": 8, "ebike": 10, "total": 18, "docks_available": 7, "bikes_disabled": 2, "docks_disabled": 0, "pct_bikes": 66.67, "pct_docks_free": 25.93}}, {"type": "Feature", "geometry": {"type": "Point", "coordinates": [2.192952, 41.3958685]}, "properties": {"station_id": "149", "name": "C/ PUJADES, 57B", "capacity": 27, "config": "ELECTRICBIKESTATION", "barri_codi": "1066", "barri_nom": "el Parc i la Llacuna del Poblenou", "district": "Sant Martí", "status": "IN_SERVICE", "mechanical": 2, "ebike": 1, "total": 3, "docks_available": 19, "bikes_disabled": 3, "docks_disabled": 0, "pct_bikes": 11.11, "pct_docks_free": 70.37}}, {"type": "Feature", "geometry": {"type": "Point", "coordinates": [2.1689031978751205, 41.39161170092347]}, "properties": {"station_id": "15", "name": "C/ DIPUTACIÓ, 272", "capacity": 27, "config": "ELECTRICBIKESTATION", "barri_codi": "0207", "barri_nom": "la Dreta de l'Eixample", "district": "Eixample", "status": "IN_SERVICE", "mechanical": 1, "ebike": 0, "total": 1, "docks_available": 26, "bikes_disabled": 1, "docks_disabled": 0, "pct_bikes": 3.7, "pct_docks_free": 96.3}}, {"type": "Feature", "geometry": {"type": "Point", "coordinates": [2.203028, 41.4065912]}, "properties": {"station_id": "150", "name": "C/ ESPRONCEDA, 124", "capacity": 27, "config": "ELECTRICBIKESTATION", "barri_codi": "1068", "barri_nom": "el Poblenou", "district": "Sant Martí", "status": "IN_SERVICE", "mechanical": 13, "ebike": 6, "total": 19, "docks_available": 6, "bikes_disabled": 2, "docks_disabled": 0, "pct_bikes": 70.37, "pct_docks_free": 22.22}}, {"type": "Feature", "geometry": {"type": "Point", "coordinates": [2.1969105, 41.4003471]}, "properties": {"station_id": "151", "name": "C/ PALLARS, 182", "capacity": 31, "config": "ELECTRICBIKESTATION", "barri_codi": "1068", "barri_nom": "el Poblenou", "district": "Sant Martí", "status": "IN_SERVICE", "mechanical": 6, "ebike": 0, "total": 6, "docks_available": 23, "bikes_disabled": 1, "docks_disabled": 0, "pct_bikes": 19.35, "pct_docks_free": 74.19}}, {"type": "Feature", "geometry": {"type": "Point", "coordinates": [2.1974184, 41.3993329]}, "properties": {"station_id": "152", "name": "C/ PUJADES, 121", "capacity": 39, "config": "ELECTRICBIKESTATION", "barri_codi": "1068", "barri_nom": "el Poblenou", "district": "Sant Martí", "status": "IN_SERVICE", "mechanical": 4, "ebike": 1, "total": 5, "docks_available": 31, "bikes_disabled": 3, "docks_disabled": 0, "pct_bikes": 12.82, "pct_docks_free": 79.49}}, {"type": "Feature", "geometry": {"type": "Point", "coordinates": [2.20077, 41.4018686]}, "properties": {"station_id": "153", "name": "C/ PUJADES, 173/RBLA POBLE NOU", "capacity": 23, "config": "ELECTRICBIKESTATION", "barri_codi": "1068", "barri_nom": "el Poblenou", "district": "Sant Martí", "status": "IN_SERVICE", "mechanical": 12, "ebike": 4, "total": 16, "docks_available": 5, "bikes_disabled": 2, "docks_disabled": 0, "pct_bikes": 69.57, "pct_docks_free": 21.74}}, {"type": "Feature", "geometry": {"type": "Point", "coordinates": [2.2017694, 41.4026275]}, "properties": {"station_id": "154", "name": "C/ PUJADES, 191", "capacity": 32, "config": "ELECTRICBIKESTATION", "barri_codi": "1068", "barri_nom": "el Poblenou", "district": "Sant Martí", "status": "IN_SERVICE", "mechanical": 18, "ebike": 0, "total": 18, "docks_available": 13, "bikes_disabled": 1, "docks_disabled": 0, "pct_bikes": 56.25, "pct_docks_free": 40.62}}, {"type": "Feature", "geometry": {"type": "Point", "coordinates": [2.2074469, 41.4070139]}, "properties": {"station_id": "155", "name": "C/ PUJADES, 311/ FLUVIÀ", "capacity": 32, "config": "ELECTRICBIKESTATION", "barri_codi": "1069", "barri_nom": "Diagonal Mar i el Front Marítim del Poblenou", "district": "Sant Martí", "status": "IN_SERVICE", "mechanical": 3, "ebike": 4, "total": 7, "docks_available": 21, "bikes_disabled": 2, "docks_disabled": 1, "pct_bikes": 21.88, "pct_docks_free": 65.62}}, {"type": "Feature", "geometry": {"type": "Point", "coordinates": [2.2088179, 41.4091355]}, "properties": {"station_id": "156", "name": "C/ SELVA DE MAR, 46", "capacity": 27, "config": "ELECTRICBIKESTATION", "barri_codi": "1069", "barri_nom": "Diagonal Mar i el Front Marítim del Poblenou", "district": "Sant Martí", "status": "IN_SERVICE", "mechanical": 15, "ebike": 0, "total": 15, "docks_available": 6, "bikes_disabled": 6, "docks_disabled": 0, "pct_bikes": 55.56, "pct_docks_free": 22.22}}, {"type": "Feature", "geometry": {"type": "Point", "coordinates": [2.2177652, 41.4132316]}, "properties": {"station_id": "157", "name": "C/ LLULL, 465", "capacity": 33, "config": "ELECTRICBIKESTATION", "barri_codi": "1070", "barri_nom": "el Besòs i el Maresme", "district": "Sant Martí", "status": "IN_SERVICE", "mechanical": 8, "ebike": 5, "total": 13, "docks_available": 17, "bikes_disabled": 3, "docks_disabled": 0, "pct_bikes": 39.39, "pct_docks_free": 51.52}}, {"type": "Feature", "geometry": {"type": "Point", "coordinates": [2.2183313, 41.4116634]}, "properties": {"station_id": "158", "name": "RAMBLA DE PRIM, 19", "capacity": 31, "config": "ELECTRICBIKESTATION", "barri_codi": "1070", "barri_nom": "el Besòs i el Maresme", "district": "Sant Martí", "status": "IN_SERVICE", "mechanical": 7, "ebike": 2, "total": 9, "docks_available": 17, "bikes_disabled": 5, "docks_disabled": 0, "pct_bikes": 29.03, "pct_docks_free": 54.84}}, {"type": "Feature", "geometry": {"type": "Point", "coordinates": [2.2163136, 41.4110822]}, "properties": {"station_id": "159", "name": "AV. DIAGONAL, 26", "capacity": 36, "config": "ELECTRICBIKESTATION", "barri_codi": "1070", "barri_nom": "el Besòs i el Maresme", "district": "Sant Martí", "status": "IN_SERVICE", "mechanical": 7, "ebike": 1, "total": 8, "docks_available": 21, "bikes_disabled": 7, "docks_disabled": 0, "pct_bikes": 22.22, "pct_docks_free": 58.33}}, {"type": "Feature", "geometry": {"type": "Point", "coordinates": [2.2193724, 41.4109763]}, "properties": {"station_id": "160", "name": "AV.DEDUARD MARISTANY,1 /FORUM", "capacity": 33, "config": "ELECTRICBIKESTATION", "barri_codi": "1070", "barri_nom": "el Besòs i el Maresme", "district": "Sant Martí", "status": "IN_SERVICE", "mechanical": 10, "ebike": 0, "total": 10, "docks_available": 19, "bikes_disabled": 4, "docks_disabled": 0, "pct_bikes": 30.3, "pct_docks_free": 57.58}}, {"type": "Feature", "geometry": {"type": "Point", "coordinates": [2.1965965, 41.3953011]}, "properties": {"station_id": "161", "name": "C/ RAMON TURRÓ, 91", "capacity": 27, "config": "ELECTRICBIKESTATION", "barri_codi": "1067", "barri_nom": "la Vila Olímpica del Poblenou", "district": "Sant Martí", "status": "IN_SERVICE", "mechanical": 8, "ebike": 1, "total": 9, "docks_available": 15, "bikes_disabled": 3, "docks_disabled": 0, "pct_bikes": 33.33, "pct_docks_free": 55.56}}, {"type": "Feature", "geometry": {"type": "Point", "coordinates": [2.2084257, 41.4038559]}, "properties": {"station_id": "162", "name": "C/ RAMON TURRÓ, 292", "capacity": 27, "config": "ELECTRICBIKESTATION", "barri_codi": "1068", "barri_nom": "el Poblenou", "district": "Sant Martí", "status": "TEMPORARILY_OFFLINE", "mechanical": 11, "ebike": 9, "total": 20, "docks_available": 3, "bikes_disabled": 4, "docks_disabled": 0, "pct_bikes": 74.07, "pct_docks_free": 11.11}}, {"type": "Feature", "geometry": {"type": "Point", "coordinates": [2.2008756, 41.3942108]}, "properties": {"station_id": "163", "name": "AV. ICÀRIA, 202", "capacity": 26, "config": "ELECTRICBIKESTATION", "barri_codi": "1067", "barri_nom": "la Vila Olímpica del Poblenou", "district": "Sant Martí", "status": "IN_SERVICE", "mechanical": 18, "ebike": 2, "total": 20, "docks_available": 3, "bikes_disabled": 3, "docks_disabled": 0, "pct_bikes": 76.92, "pct_docks_free": 11.54}}, {"type": "Feature", "geometry": {"type": "Point", "coordinates": [2.1778852, 41.4118378]}, "properties": {"station_id": "164", "name": "C/ INDEPENDÈNCIA, 379", "capacity": 27, "config": "ELECTRICBIKESTATION", "barri_codi": "1064", "barri_nom": "el Camp de l'Arpa del Clot", "district": "Sant Martí", "status": "IN_SERVICE", "mechanical": 16, "ebike": 0, "total": 16, "docks_available": 9, "bikes_disabled": 2, "docks_disabled": 0, "pct_bikes": 59.26, "pct_docks_free": 33.33}}, {"type": "Feature", "geometry": {"type": "Point", "coordinates": [2.2041415, 41.3992169]}, "properties": {"station_id": "165", "name": "C/ DEL DOCTOR TRUETA, 222", "capacity": 27, "config": "ELECTRICBIKESTATION", "barri_codi": "1068", "barri_nom": "el Poblenou", "district": "Sant Martí", "status": "IN_SERVICE", "mechanical": 5, "ebike": 0, "total": 5, "docks_available": 19, "bikes_disabled": 3, "docks_disabled": 0, "pct_bikes": 18.52, "pct_docks_free": 70.37}}, {"type": "Feature", "geometry": {"type": "Point", "coordinates": [2.206645, 41.4008312]}, "properties": {"station_id": "166", "name": "C/ BILBAO, 2", "capacity": 26, "config": "ELECTRICBIKESTATION", "barri_codi": "1068", "barri_nom": "el Poblenou", "district": "Sant Martí", "status": "IN_SERVICE", "mechanical": 10, "ebike": 1, "total": 11, "docks_available": 13, "bikes_disabled": 2, "docks_disabled": 0, "pct_bikes": 42.31, "pct_docks_free": 50.0}}, {"type": "Feature", "geometry": {"type": "Point", "coordinates": [2.2105777, 41.4023354]}, "properties": {"station_id": "167", "name": "C/ BAC DE RODA, 11", "capacity": 20, "config": "ELECTRICBIKESTATION", "barri_codi": "1069", "barri_nom": "Diagonal Mar i el Front Marítim del Poblenou", "district": "Sant Martí", "status": "IN_SERVICE", "mechanical": 3, "ebike": 4, "total": 7, "docks_available": 11, "bikes_disabled": 2, "docks_disabled": 0, "pct_bikes": 35.0, "pct_docks_free": 55.0}}, {"type": "Feature", "geometry": {"type": "Point", "coordinates": [2.2135818, 41.4053697]}, "properties": {"station_id": "168", "name": "SELVA DE MAR / PG. DEL TAULAT", "capacity": 26, "config": "ELECTRICBIKESTATION", "barri_codi": "1069", "barri_nom": "Diagonal Mar i el Front Marítim del Poblenou", "district": "Sant Martí", "status": "IN_SERVICE", "mechanical": 12, "ebike": 6, "total": 18, "docks_available": 7, "bikes_disabled": 1, "docks_disabled": 0, "pct_bikes": 69.23, "pct_docks_free": 26.92}}, {"type": "Feature", "geometry": {"type": "Point", "coordinates": [2.1866517, 41.3982615]}, "properties": {"station_id": "17", "name": "AV. MERIDIANA, 47 (D)", "capacity": 42, "config": "ELECTRICBIKESTATION", "barri_codi": "0205", "barri_nom": "el Fort Pienc", "district": "Eixample", "status": "IN_SERVICE", "mechanical": 15, "ebike": 2, "total": 17, "docks_available": 25, "bikes_disabled": 0, "docks_disabled": 0, "pct_bikes": 40.48, "pct_docks_free": 59.52}}, {"type": "Feature", "geometry": {"type": "Point", "coordinates": [2.1999572, 41.3896642]}, "properties": {"station_id": "170", "name": "AV. LITORAL, 40 (D)", "capacity": 53, "config": "ELECTRICBIKESTATION", "barri_codi": "1067", "barri_nom": "la Vila Olímpica del Poblenou", "district": "Sant Martí", "status": "IN_SERVICE", "mechanical": 16, "ebike": 1, "total": 17, "docks_available": 35, "bikes_disabled": 2, "docks_disabled": 0, "pct_bikes": 32.08, "pct_docks_free": 66.04}}, {"type": "Feature", "geometry": {"type": "Point", "coordinates": [2.2037136, 41.3919877]}, "properties": {"station_id": "171", "name": "AV. LITORAL, 172", "capacity": 54, "config": "ELECTRICBIKESTATION", "barri_codi": "1067", "barri_nom": "la Vila Olímpica del Poblenou", "district": "Sant Martí", "status": "IN_SERVICE", "mechanical": 19, "ebike": 0, "total": 19, "docks_available": 35, "bikes_disabled": 0, "docks_disabled": 0, "pct_bikes": 35.19, "pct_docks_free": 64.81}}, {"type": "Feature", "geometry": {"type": "Point", "coordinates": [2.2088454, 41.3979002]}, "properties": {"station_id": "173", "name": "AV.LITORAL, 84", "capacity": 27, "config": "ELECTRICBIKESTATION", "barri_codi": "1068", "barri_nom": "el Poblenou", "district": "Sant Martí", "status": "IN_SERVICE", "mechanical": 9, "ebike": 3, "total": 12, "docks_available": 14, "bikes_disabled": 1, "docks_disabled": 0, "pct_bikes": 44.44, "pct_docks_free": 51.85}}, {"type": "Feature", "geometry": {"type": "Point", "coordinates": [2.210191, 41.400654]}, "properties": {"station_id": "174", "name": "PG. DE GARCIA FÀRIA, 21/ESPRONCEDA", "capacity": 27, "config": "ELECTRICBIKESTATION", "barri_codi": "1069", "barri_nom": "Diagonal Mar i el Front Marítim del Poblenou", "district": "Sant Martí", "status": "IN_SERVICE", "mechanical": 8, "ebike": 4, "total": 11, "docks_available": 13, "bikes_disabled": 2, "docks_disabled": 0, "pct_bikes": 40.74, "pct_docks_free": 48.15}}, {"type": "Feature", "geometry": {"type": "Point", "coordinates": [2.2091221, 41.4065291]}, "properties": {"station_id": "175", "name": "C/ LLULL, 309", "capacity": 27, "config": "ELECTRICBIKESTATION", "barri_codi": "1069", "barri_nom": "Diagonal Mar i el Front Marítim del Poblenou", "district": "Sant Martí", "status": "IN_SERVICE", "mechanical": 5, "ebike": 11, "total": 16, "docks_available": 11, "bikes_disabled": 0, "docks_disabled": 0, "pct_bikes": 59.26, "pct_docks_free": 40.74}}, {"type": "Feature", "geometry": {"type": "Point", "coordinates": [2.2136, 41.403216]}, "properties": {"station_id": "176", "name": "PG. DE GARCIA FÀRIA, 37/JOSEP FERRATER", "capacity": 31, "config": "ELECTRICBIKESTATION", "barri_codi": "1069", "barri_nom": "Diagonal Mar i el Front Marítim del Poblenou", "district": "Sant Martí", "status": "IN_SERVICE", "mechanical": 5, "ebike": 6, "total": 11, "docks_available": 14, "bikes_disabled": 6, "docks_disabled": 0, "pct_bikes": 35.48, "pct_docks_free": 45.16}}, {"type": "Feature", "geometry": {"type": "Point", "coordinates": [2.1809764, 41.4110754]}, "properties": {"station_id": "177", "name": "C/ ROSSELLÓ, 557", "capacity": 37, "config": "ELECTRICBIKESTATION", "barri_codi": "1064", "barri_nom": "el Camp de l'Arpa del Clot", "district": "Sant Martí", "status": "IN_SERVICE", "mechanical": 4, "ebike": 2, "total": 6, "docks_available": 26, "bikes_disabled": 5, "docks_disabled": 0, "pct_bikes": 16.22, "pct_docks_free": 70.27}}, {"type": "Feature", "geometry": {"type": "Point", "coordinates": [2.2162094, 41.4053649]}, "properties": {"station_id": "178", "name": "PG. DE GARCIA FÀRIA, 85", "capacity": 27, "config": "ELECTRICBIKESTATION", "barri_codi": "1069", "barri_nom": "Diagonal Mar i el Front Marítim del Poblenou", "district": "Sant Martí", "status": "IN_SERVICE", "mechanical": 7, "ebike": 3, "total": 10, "docks_available": 15, "bikes_disabled": 2, "docks_disabled": 0, "pct_bikes": 37.04, "pct_docks_free": 55.56}}, {"type": "Feature", "geometry": {"type": "Point", "coordinates": [2.1369015, 41.36352]}, "properties": {"station_id": "179", "name": "PG. ZONA FRANCA, 244", "capacity": 16, "config": "ELECTRICBIKESTATION", "barri_codi": "0313", "barri_nom": "la Marina de Port", "district": "Sants-Montjuïc", "status": "IN_SERVICE", "mechanical": 2, "ebike": 4, "total": 6, "docks_available": 8, "bikes_disabled": 2, "docks_disabled": 0, "pct_bikes": 37.5, "pct_docks_free": 50.0}}, {"type": "Feature", "geometry": {"type": "Point", "coordinates": [2.1740472, 41.4060589]}, "properties": {"station_id": "18", "name": "C/ ROSSELLÓ, 453", "capacity": 26, "config": "ELECTRICBIKESTATION", "barri_codi": "0206", "barri_nom": "la Sagrada Família", "district": "Eixample", "status": "IN_SERVICE", "mechanical": 0, "ebike": 2, "total": 2, "docks_available": 23, "bikes_disabled": 1, "docks_disabled": 0, "pct_bikes": 7.69, "pct_docks_free": 88.46}}, {"type": "Feature", "geometry": {"type": "Point", "coordinates": [2.1388216, 41.3675574]}, "properties": {"station_id": "180", "name": "GRAN VIA DE LES CORTS CATALANES, 179 (D)", "capacity": 51, "config": "ELECTRICBIKESTATION", "barri_codi": "0316", "barri_nom": "la Bordeta", "district": "Sants-Montjuïc", "status": "IN_SERVICE", "mechanical": 46, "ebike": 1, "total": 47, "docks_available": 3, "bikes_disabled": 1, "docks_disabled": 0, "pct_bikes": 92.16, "pct_docks_free": 5.88}}, {"type": "Feature", "geometry": {"type": "Point", "coordinates": [2.143565, 41.371366]}, "properties": {"station_id": "182", "name": "C/ SANT PERE D´ABANTO, 2", "capacity": 32, "config": "ELECTRICBIKESTATION", "barri_codi": "0315", "barri_nom": "Hostafrancs", "district": "Sants-Montjuïc", "status": "IN_SERVICE", "mechanical": 11, "ebike": 6, "total": 17, "docks_available": 13, "bikes_disabled": 2, "docks_disabled": 0, "pct_bikes": 53.12, "pct_docks_free": 40.62}}, {"type": "Feature", "geometry": {"type": "Point", "coordinates": [2.1419494, 41.3723682]}, "properties": {"station_id": "183", "name": "C/ GAVÀ, 1", "capacity": 30, "config": "ELECTRICBIKESTATION", "barri_codi": "0316", "barri_nom": "la Bordeta", "district": "Sants-Montjuïc", "status": "IN_SERVICE", "mechanical": 9, "ebike": 5, "total": 14, "docks_available": 14, "bikes_disabled": 2, "docks_disabled": 0, "pct_bikes": 46.67, "pct_docks_free": 46.67}}, {"type": "Feature", "geometry": {"type": "Point", "coordinates": [2.1342316, 41.3675438]}, "properties": {"station_id": "184", "name": "C/ QUETZAL, 22-24", "capacity": 27, "config": "ELECTRICBIKESTATION", "barri_codi": "0316", "barri_nom": "la Bordeta", "district": "Sants-Montjuïc", "status": "IN_SERVICE", "mechanical": 5, "ebike": 8, "total": 13, "docks_available": 12, "bikes_disabled": 2, "docks_disabled": 0, "pct_bikes": 48.15, "pct_docks_free": 44.44}}, {"type": "Feature", "geometry": {"type": "Point", "coordinates": [2.1389439, 41.3703717]}, "properties": {"station_id": "185", "name": "C/GAVÀ, 81", "capacity": 17, "config": "ELECTRICBIKESTATION", "barri_codi": "0316", "barri_nom": "la Bordeta", "district": "Sants-Montjuïc", "status": "IN_SERVICE", "mechanical": 3, "ebike": 4, "total": 7, "docks_available": 8, "bikes_disabled": 2, "docks_disabled": 0, "pct_bikes": 41.18, "pct_docks_free": 47.06}}, {"type": "Feature", "geometry": {"type": "Point", "coordinates": [2.1439036, 41.3755503]}, "properties": {"station_id": "186", "name": "C/CONSELL DE CENT, 6", "capacity": 26, "config": "ELECTRICBIKESTATION", "barri_codi": "0315", "barri_nom": "Hostafrancs", "district": "Sants-Montjuïc", "status": "IN_SERVICE", "mechanical": 6, "ebike": 13, "total": 19, "docks_available": 1, "bikes_disabled": 6, "docks_disabled": 0, "pct_bikes": 73.08, "pct_docks_free": 3.85}}, {"type": "Feature", "geometry": {"type": "Point", "coordinates": [2.1698206, 41.3768806]}, "properties": {"station_id": "187", "name": "C/ DE SANT PAU, 89 - 97", "capacity": 15, "config": "ELECTRICBIKESTATION", "barri_codi": "0101", "barri_nom": "el Raval", "district": "Ciutat Vella", "status": "IN_SERVICE", "mechanical": 6, "ebike": 6, "total": 12, "docks_available": 3, "bikes_disabled": 0, "docks_disabled": 0, "pct_bikes": 80.0, "pct_docks_free": 20.0}}, {"type": "Feature", "geometry": {"type": "Point", "coordinates": [2.136191, 41.376131]}, "properties": {"station_id": "188", "name": "PG. DE SANT ANTONI, 1", "capacity": 27, "config": "ELECTRICBIKESTATION", "barri_codi": "0318", "barri_nom": "Sants", "district": "Sants-Montjuïc", "status": "IN_SERVICE", "mechanical": 4, "ebike": 13, "total": 17, "docks_available": 5, "bikes_disabled": 2, "docks_disabled": 1, "pct_bikes": 62.96, "pct_docks_free": 18.52}}, {"type": "Feature", "geometry": {"type": "Point", "coordinates": [2.1661852, 41.3969839]}, "properties": {"station_id": "189", "name": "C/ BRUC, 130", "capacity": 28, "config": "ELECTRICBIKESTATION", "barri_codi": "0207", "barri_nom": "la Dreta de l'Eixample", "district": "Eixample", "status": "IN_SERVICE", "mechanical": 13, "ebike": 2, "total": 15, "docks_available": 7, "bikes_disabled": 6, "docks_disabled": 0, "pct_bikes": 53.57, "pct_docks_free": 25.0}}, {"type": "Feature", "geometry": {"type": "Point", "coordinates": [2.1707947, 41.4031491]}, "properties": {"station_id": "19", "name": "C/ ROSSELLÓ, 354", "capacity": 30, "config": "ELECTRICBIKESTATION", "barri_codi": "0206", "barri_nom": "la Sagrada Família", "district": "Eixample", "status": "IN_SERVICE", "mechanical": 1, "ebike": 1, "total": 2, "docks_available": 26, "bikes_disabled": 2, "docks_disabled": 0, "pct_bikes": 6.67, "pct_docks_free": 86.67}}, {"type": "Feature", "geometry": {"type": "Point", "coordinates": [2.2078439, 41.3961412]}, "properties": {"station_id": "190", "name": "AV. LITORAL, 72", "capacity": 29, "config": "ELECTRICBIKESTATION", "barri_codi": "1068", "barri_nom": "el Poblenou", "district": "Sant Martí", "status": "IN_SERVICE", "mechanical": 9, "ebike": 3, "total": 12, "docks_available": 8, "bikes_disabled": 9, "docks_disabled": 0, "pct_bikes": 41.38, "pct_docks_free": 27.59}}, {"type": "Feature", "geometry": {"type": "Point", "coordinates": [2.147474, 41.381951]}, "properties": {"station_id": "191", "name": "C/ ENTENÇA, 137", "capacity": 37, "config": "ELECTRICBIKESTATION", "barri_codi": "0209", "barri_nom": "la Nova Esquerra de l'Eixample", "district": "Eixample", "status": "IN_SERVICE", "mechanical": 3, "ebike": 0, "total": 3, "docks_available": 31, "bikes_disabled": 3, "docks_disabled": 0, "pct_bikes": 8.11, "pct_docks_free": 83.78}}, {"type": "Feature", "geometry": {"type": "Point", "coordinates": [2.1335494, 41.3786364]}, "properties": {"station_id": "192", "name": "C/ JOAN GÜELL, 50", "capacity": 21, "config": "ELECTRICBIKESTATION", "barri_codi": "0318", "barri_nom": "Sants", "district": "Sants-Montjuïc", "status": "IN_SERVICE", "mechanical": 0, "ebike": 0, "total": 0, "docks_available": 19, "bikes_disabled": 2, "docks_disabled": 0, "pct_bikes": 0.0, "pct_docks_free": 90.48}}, {"type": "Feature", "geometry": {"type": "Point", "coordinates": [2.1289917, 41.3812979]}, "properties": {"station_id": "193", "name": "C/ FÍGOLS, 1", "capacity": 27, "config": "ELECTRICBIKESTATION", "barri_codi": "0419", "barri_nom": "les Corts", "district": "Les Corts", "status": "IN_SERVICE", "mechanical": 0, "ebike": 10, "total": 10, "docks_available": 12, "bikes_disabled": 4, "docks_disabled": 0, "pct_bikes": 37.04, "pct_docks_free": 44.44}}, {"type": "Feature", "geometry": {"type": "Point", "coordinates": [2.1323612, 41.3812001]}, "properties": {"station_id": "194", "name": "C/ JOAN GÜELL, 98", "capacity": 24, "config": "ELECTRICBIKESTATION", "barri_codi": "0419", "barri_nom": "les Corts", "district": "Les Corts", "status": "IN_SERVICE", "mechanical": 0, "ebike": 4, "total": 4, "docks_available": 17, "bikes_disabled": 3, "docks_disabled": 0, "pct_bikes": 16.67, "pct_docks_free": 70.83}}, {"type": "Feature", "geometry": {"type": "Point", "coordinates": [2.1354149, 41.3821371]}, "properties": {"station_id": "195", "name": "C/ VALLESPIR, 130", "capacity": 27, "config": "ELECTRICBIKESTATION", "barri_codi": "0419", "barri_nom": "les Corts", "district": "Les Corts", "status": "IN_SERVICE", "mechanical": 0, "ebike": 1, "total": 1, "docks_available": 24, "bikes_disabled": 2, "docks_disabled": 0, "pct_bikes": 3.7, "pct_docks_free": 88.89}}, {"type": "Feature", "geometry": {"type": "Point", "coordinates": [2.1392662, 41.3832609]}, "properties": {"station_id": "196", "name": "C/ BERLÍN, 38", "capacity": 27, "config": "ELECTRICBIKESTATION", "barri_codi": "0318", "barri_nom": "Sants", "district": "Sants-Montjuïc", "status": "IN_SERVICE", "mechanical": 2, "ebike": 0, "total": 2, "docks_available": 22, "bikes_disabled": 2, "docks_disabled": 1, "pct_bikes": 7.41, "pct_docks_free": 81.48}}, {"type": "Feature", "geometry": {"type": "Point", "coordinates": [2.1410945, 41.3871579]}, "properties": {"station_id": "197", "name": "C/ GELABERT, 1", "capacity": 27, "config": "ELECTRICBIKESTATION", "barri_codi": "0419", "barri_nom": "les Corts", "district": "Les Corts", "status": "IN_SERVICE", "mechanical": 1, "ebike": 3, "total": 4, "docks_available": 20, "bikes_disabled": 3, "docks_disabled": 0, "pct_bikes": 14.81, "pct_docks_free": 74.07}}, {"type": "Feature", "geometry": {"type": "Point", "coordinates": [2.1334379, 41.3847113]}, "properties": {"station_id": "198", "name": "C/ VALLESPIR, 194", "capacity": 27, "config": "ELECTRICBIKESTATION", "barri_codi": "0419", "barri_nom": "les Corts", "district": "Les Corts", "status": "IN_SERVICE", "mechanical": 1, "ebike": 1, "total": 2, "docks_available": 20, "bikes_disabled": 4, "docks_disabled": 0, "pct_bikes": 7.41, "pct_docks_free": 74.07}}, {"type": "Feature", "geometry": {"type": "Point", "coordinates": [2.1268625, 41.3819739]}, "properties": {"station_id": "199", "name": "C/ MEJÍA LEQUERICA, 2", "capacity": 27, "config": "ELECTRICBIKESTATION", "barri_codi": "0420", "barri_nom": "la Maternitat i Sant Ramon", "district": "Les Corts", "status": "IN_SERVICE", "mechanical": 0, "ebike": 5, "total": 5, "docks_available": 18, "bikes_disabled": 1, "docks_disabled": 3, "pct_bikes": 18.52, "pct_docks_free": 66.67}}, {"type": "Feature", "geometry": {"type": "Point", "coordinates": [2.1771985, 41.3954877]}, "properties": {"station_id": "2", "name": "C/ ROGER DE FLOR, 126", "capacity": 28, "config": "ELECTRICBIKESTATION", "barri_codi": "0205", "barri_nom": "el Fort Pienc", "district": "Eixample", "status": "IN_SERVICE", "mechanical": 4, "ebike": 1, "total": 5, "docks_available": 23, "bikes_disabled": 0, "docks_disabled": 0, "pct_bikes": 17.86, "pct_docks_free": 82.14}}, {"type": "Feature", "geometry": {"type": "Point", "coordinates": [2.1757334, 41.410314]}, "properties": {"station_id": "20", "name": "C/ CARTAGENA, 308", "capacity": 18, "config": "ELECTRICBIKESTATION", "barri_codi": "0206", "barri_nom": "la Sagrada Família", "district": "Eixample", "status": "IN_SERVICE", "mechanical": 0, "ebike": 1, "total": 1, "docks_available": 15, "bikes_disabled": 2, "docks_disabled": 0, "pct_bikes": 5.56, "pct_docks_free": 83.33}}, {"type": "Feature", "geometry": {"type": "Point", "coordinates": [2.1312876, 41.3839045]}, "properties": {"station_id": "200", "name": "C/ JOAN GÜELL, 174", "capacity": 24, "config": "ELECTRICBIKESTATION", "barri_codi": "0419", "barri_nom": "les Corts", "district": "Les Corts", "status": "IN_SERVICE", "mechanical": 2, "ebike": 2, "total": 4, "docks_available": 18, "bikes_disabled": 2, "docks_disabled": 0, "pct_bikes": 16.67, "pct_docks_free": 75.0}}, {"type": "Feature", "geometry": {"type": "Point", "coordinates": [2.1344218, 41.3878061]}, "properties": {"station_id": "201", "name": "C/ NUMÀNCIA, 136", "capacity": 24, "config": "ELECTRICBIKESTATION", "barri_codi": "0419", "barri_nom": "les Corts", "district": "Les Corts", "status": "IN_SERVICE", "mechanical": 2, "ebike": 2, "total": 3, "docks_available": 13, "bikes_disabled": 5, "docks_disabled": 0, "pct_bikes": 12.5, "pct_docks_free": 54.17}}, {"type": "Feature", "geometry": {"type": "Point", "coordinates": [2.1288753, 41.3854466]}, "properties": {"station_id": "202", "name": "C/ DE LES CORTS, 20", "capacity": 27, "config": "ELECTRICBIKESTATION", "barri_codi": "0419", "barri_nom": "les Corts", "district": "Les Corts", "status": "IN_SERVICE", "mechanical": 1, "ebike": 1, "total": 2, "docks_available": 18, "bikes_disabled": 4, "docks_disabled": 1, "pct_bikes": 7.41, "pct_docks_free": 66.67}}, {"type": "Feature", "geometry": {"type": "Point", "coordinates": [2.1285766, 41.3887069]}, "properties": {"station_id": "203", "name": "AV. DIAGONAL, 668", "capacity": 33, "config": "ELECTRICBIKESTATION", "barri_codi": "0419", "barri_nom": "les Corts", "district": "Les Corts", "status": "IN_SERVICE", "mechanical": 2, "ebike": 3, "total": 5, "docks_available": 24, "bikes_disabled": 3, "docks_disabled": 1, "pct_bikes": 15.15, "pct_docks_free": 72.73}}, {"type": "Feature", "geometry": {"type": "Point", "coordinates": [2.1256248, 41.3880355]}, "properties": {"station_id": "204", "name": "AV. DIAGONAL, 672", "capacity": 33, "config": "ELECTRICBIKESTATION", "barri_codi": "0421", "barri_nom": "Pedralbes", "district": "Les Corts", "status": "IN_SERVICE", "mechanical": 2, "ebike": 0, "total": 2, "docks_available": 30, "bikes_disabled": 1, "docks_disabled": 0, "pct_bikes": 6.06, "pct_docks_free": 90.91}}, {"type": "Feature", "geometry": {"type": "Point", "coordinates": [2.13059591593856, 41.38794133109378]}, "properties": {"station_id": "205", "name": "C/ DE CAN SEGALAR, 4", "capacity": 37, "config": "ELECTRICBIKESTATION", "barri_codi": "0419", "barri_nom": "les Corts", "district": "Les Corts", "status": "IN_SERVICE", "mechanical": 1, "ebike": 2, "total": 3, "docks_available": 29, "bikes_disabled": 5, "docks_disabled": 0, "pct_bikes": 8.11, "pct_docks_free": 78.38}}, {"type": "Feature", "geometry": {"type": "Point", "coordinates": [2.1328634, 41.3897943]}, "properties": {"station_id": "206", "name": "AV. DIAGONAL, 650", "capacity": 33, "config": "ELECTRICBIKESTATION", "barri_codi": "0419", "barri_nom": "les Corts", "district": "Les Corts", "status": "IN_SERVICE", "mechanical": 1, "ebike": 1, "total": 2, "docks_available": 29, "bikes_disabled": 2, "docks_disabled": 0, "pct_bikes": 6.06, "pct_docks_free": 87.88}}, {"type": "Feature", "geometry": {"type": "Point", "coordinates": [2.136579, 41.3908477]}, "properties": {"station_id": "207", "name": "AV. DIAGONAL, 634", "capacity": 25, "config": "ELECTRICBIKESTATION", "barri_codi": "0419", "barri_nom": "les Corts", "district": "Les Corts", "status": "IN_SERVICE", "mechanical": 0, "ebike": 1, "total": 1, "docks_available": 19, "bikes_disabled": 5, "docks_disabled": 0, "pct_bikes": 4.0, "pct_docks_free": 76.0}}, {"type": "Feature", "geometry": {"type": "Point", "coordinates": [2.1390667, 41.3915195]}, "properties": {"station_id": "208", "name": "AV. DIAGONAL, 630", "capacity": 32, "config": "ELECTRICBIKESTATION", "barri_codi": "0526", "barri_nom": "Sant Gervasi - Galvany", "district": "Sarrià-Sant Gervasi", "status": "IN_SERVICE", "mechanical": 0, "ebike": 1, "total": 1, "docks_available": 26, "bikes_disabled": 4, "docks_disabled": 0, "pct_bikes": 3.12, "pct_docks_free": 81.25}}, {"type": "Feature", "geometry": {"type": "Point", "coordinates": [2.1610515, 41.3857425]}, "properties": {"station_id": "209", "name": "C/ DIPUTACIÓ, 200", "capacity": 26, "config": "ELECTRICBIKESTATION", "barri_codi": "0208", "barri_nom": "l'Antiga Esquerra de l'Eixample", "district": "Eixample", "status": "IN_SERVICE", "mechanical": 0, "ebike": 1, "total": 1, "docks_available": 25, "bikes_disabled": 0, "docks_disabled": 0, "pct_bikes": 3.85, "pct_docks_free": 96.15}}, {"type": "Feature", "geometry": {"type": "Point", "coordinates": [2.1740575, 41.4108439]}, "properties": {"station_id": "21", "name": "C/ SANT ANTONI MARIA CLARET, 214", "capacity": 21, "config": "ELECTRICBIKESTATION", "barri_codi": "0206", "barri_nom": "la Sagrada Família", "district": "Eixample", "status": "IN_SERVICE", "mechanical": 0, "ebike": 7, "total": 7, "docks_available": 13, "bikes_disabled": 0, "docks_disabled": 1, "pct_bikes": 33.33, "pct_docks_free": 61.9}}, {"type": "Feature", "geometry": {"type": "Point", "coordinates": [2.1422556, 41.3745238]}, "properties": {"station_id": "210", "name": "C/ VILARDELL, 18", "capacity": 31, "config": "ELECTRICBIKESTATION", "barri_codi": "0315", "barri_nom": "Hostafrancs", "district": "Sants-Montjuïc", "status": "IN_SERVICE", "mechanical": 8, "ebike": 2, "total": 10, "docks_available": 21, "bikes_disabled": 0, "docks_disabled": 0, "pct_bikes": 32.26, "pct_docks_free": 67.74}}, {"type": "Feature", "geometry": {"type": "Point", "coordinates": [2.1902116, 41.3987543]}, "properties": {"station_id": "211", "name": "C/ SANCHO DE ÁVILA, 60-64", "capacity": 28, "config": "ELECTRICBIKESTATION", "barri_codi": "1066", "barri_nom": "el Parc i la Llacuna del Poblenou", "district": "Sant Martí", "status": "IN_SERVICE", "mechanical": 1, "ebike": 1, "total": 2, "docks_available": 26, "bikes_disabled": 0, "docks_disabled": 0, "pct_bikes": 7.14, "pct_docks_free": 92.86}}, {"type": "Feature", "geometry": {"type": "Point", "coordinates": [2.1309272, 41.3922355]}, "properties": {"station_id": "212", "name": "AV. SARRIÀ, 163", "capacity": 24, "config": "ELECTRICBIKESTATION", "barri_codi": "0419", "barri_nom": "les Corts", "district": "Les Corts", "status": "IN_SERVICE", "mechanical": 0, "ebike": 1, "total": 1, "docks_available": 17, "bikes_disabled": 5, "docks_disabled": 1, "pct_bikes": 4.17, "pct_docks_free": 70.83}}, {"type": "Feature", "geometry": {"type": "Point", "coordinates": [2.1345892, 41.3935816]}, "properties": {"station_id": "213", "name": "C/ SANTA FE DE NOU MÈXIC, 2", "capacity": 33, "config": "ELECTRICBIKESTATION", "barri_codi": "0524", "barri_nom": "les Tres Torres", "district": "Sarrià-Sant Gervasi", "status": "IN_SERVICE", "mechanical": 9, "ebike": 0, "total": 9, "docks_available": 20, "bikes_disabled": 3, "docks_disabled": 0, "pct_bikes": 27.27, "pct_docks_free": 60.61}}, {"type": "Feature", "geometry": {"type": "Point", "coordinates": [2.1334873, 41.3952027]}, "properties": {"station_id": "214", "name": "C/ JOSÉ DE  AGULLÓ, 9", "capacity": 25, "config": "ELECTRICBIKESTATION", "barri_codi": "0524", "barri_nom": "les Tres Torres", "district": "Sarrià-Sant Gervasi", "status": "IN_SERVICE", "mechanical": 3, "ebike": 2, "total": 5, "docks_available": 19, "bikes_disabled": 2, "docks_disabled": 0, "pct_bikes": 20.0, "pct_docks_free": 76.0}}, {"type": "Feature", "geometry": {"type": "Point", "coordinates": [2.1380304, 41.3939378]}, "properties": {"station_id": "215", "name": "C/ GANDUXER, 29", "capacity": 21, "config": "ELECTRICBIKESTATION", "barri_codi": "0526", "barri_nom": "Sant Gervasi - Galvany", "district": "Sarrià-Sant Gervasi", "status": "IN_SERVICE", "mechanical": 1, "ebike": 0, "total": 1, "docks_available": 19, "bikes_disabled": 1, "docks_disabled": 0, "pct_bikes": 4.76, "pct_docks_free": 90.48}}, {"type": "Feature", "geometry": {"type": "Point", "coordinates": [2.1445567, 41.3967824]}, "properties": {"station_id": "216", "name": "C/ MADRAZO, 131", "capacity": 26, "config": "ELECTRICBIKESTATION", "barri_codi": "0526", "barri_nom": "Sant Gervasi - Galvany", "district": "Sarrià-Sant Gervasi", "status": "IN_SERVICE", "mechanical": 1, "ebike": 0, "total": 1, "docks_available": 21, "bikes_disabled": 3, "docks_disabled": 1, "pct_bikes": 3.85, "pct_docks_free": 80.77}}, {"type": "Feature", "geometry": {"type": "Point", "coordinates": [2.1440826, 41.3985735]}, "properties": {"station_id": "217", "name": "C/ RECTOR UBACH, 24", "capacity": 27, "config": "ELECTRICBIKESTATION", "barri_codi": "0526", "barri_nom": "Sant Gervasi - Galvany", "district": "Sarrià-Sant Gervasi", "status": "IN_SERVICE", "mechanical": 0, "ebike": 1, "total": 1, "docks_available": 20, "bikes_disabled": 6, "docks_disabled": 0, "pct_bikes": 3.7, "pct_docks_free": 74.07}}, {"type": "Feature", "geometry": {"type": "Point", "coordinates": [2.183145, 41.4040364]}, "properties": {"station_id": "218", "name": "C/ CONSELL DE CENT, 566", "capacity": 39, "config": "ELECTRICBIKESTATION", "barri_codi": "0206", "barri_nom": "la Sagrada Família", "district": "Eixample", "status": "IN_SERVICE", "mechanical": 2, "ebike": 5, "total": 7, "docks_available": 29, "bikes_disabled": 3, "docks_disabled": 0, "pct_bikes": 17.95, "pct_docks_free": 74.36}}, {"type": "Feature", "geometry": {"type": "Point", "coordinates": [2.1471724, 41.3976165]}, "properties": {"station_id": "219", "name": "C/ LAFORJA, 74-76", "capacity": 26, "config": "ELECTRICBIKESTATION", "barri_codi": "0526", "barri_nom": "Sant Gervasi - Galvany", "district": "Sarrià-Sant Gervasi", "status": "IN_SERVICE", "mechanical": 1, "ebike": 1, "total": 2, "docks_available": 23, "bikes_disabled": 1, "docks_disabled": 0, "pct_bikes": 7.69, "pct_docks_free": 88.46}}, {"type": "Feature", "geometry": {"type": "Point", "coordinates": [2.175767, 41.4016969]}, "properties": {"station_id": "22", "name": "C/ SARDENYA, 292", "capacity": 19, "config": "ELECTRICBIKESTATION", "barri_codi": "0206", "barri_nom": "la Sagrada Família", "district": "Eixample", "status": "IN_SERVICE", "mechanical": 3, "ebike": 1, "total": 4, "docks_available": 11, "bikes_disabled": 4, "docks_disabled": 0, "pct_bikes": 21.05, "pct_docks_free": 57.89}}, {"type": "Feature", "geometry": {"type": "Point", "coordinates": [2.1513154, 41.3960982]}, "properties": {"station_id": "220", "name": "C/ TUSET, 19", "capacity": 27, "config": "ELECTRICBIKESTATION", "barri_codi": "0526", "barri_nom": "Sant Gervasi - Galvany", "district": "Sarrià-Sant Gervasi", "status": "IN_SERVICE", "mechanical": 0, "ebike": 2, "total": 2, "docks_available": 16, "bikes_disabled": 8, "docks_disabled": 0, "pct_bikes": 7.41, "pct_docks_free": 59.26}}, {"type": "Feature", "geometry": {"type": "Point", "coordinates": [2.1524704, 41.4025392]}, "properties": {"station_id": "221", "name": "GRAN DE GRÀCIA, 155 (METRO FONTANA)", "capacity": 24, "config": "ELECTRICBIKESTATION", "barri_codi": "0631", "barri_nom": "la Vila de Gràcia", "district": "Gràcia", "status": "IN_SERVICE", "mechanical": 0, "ebike": 13, "total": 13, "docks_available": 5, "bikes_disabled": 6, "docks_disabled": 0, "pct_bikes": 54.17, "pct_docks_free": 20.83}}, {"type": "Feature", "geometry": {"type": "Point", "coordinates": [2.1574439, 41.4013296]}, "properties": {"station_id": "222", "name": "C/ DEL CANÓ, 1", "capacity": 27, "config": "ELECTRICBIKESTATION", "barri_codi": "0631", "barri_nom": "la Vila de Gràcia", "district": "Gràcia", "status": "IN_SERVICE", "mechanical": 0, "ebike": 6, "total": 6, "docks_available": 9, "bikes_disabled": 11, "docks_disabled": 1, "pct_bikes": 22.22, "pct_docks_free": 33.33}}, {"type": "Feature", "geometry": {"type": "Point", "coordinates": [2.1598243, 41.3983444]}, "properties": {"station_id": "223", "name": "C/ DE BONAVISTA, 14", "capacity": 32, "config": "ELECTRICBIKESTATION", "barri_codi": "0631", "barri_nom": "la Vila de Gràcia", "district": "Gràcia", "status": "IN_SERVICE", "mechanical": 0, "ebike": 0, "total": 0, "docks_available": 21, "bikes_disabled": 11, "docks_disabled": 0, "pct_bikes": 0.0, "pct_docks_free": 65.62}}, {"type": "Feature", "geometry": {"type": "Point", "coordinates": [2.1644531, 41.3999967]}, "properties": {"station_id": "224", "name": "C / GIRONA, 176", "capacity": 26, "config": "ELECTRICBIKESTATION", "barri_codi": "0207", "barri_nom": "la Dreta de l'Eixample", "district": "Eixample", "status": "IN_SERVICE", "mechanical": 0, "ebike": 0, "total": 0, "docks_available": 19, "bikes_disabled": 6, "docks_disabled": 1, "pct_bikes": 0.0, "pct_docks_free": 73.08}}, {"type": "Feature", "geometry": {"type": "Point", "coordinates": [2.1508071246452154, 41.384810211467105]}, "properties": {"station_id": "225", "name": "C/ VILADOMAT, 200", "capacity": 25, "config": "ELECTRICBIKESTATION", "barri_codi": "0209", "barri_nom": "la Nova Esquerra de l'Eixample", "district": "Eixample", "status": "IN_SERVICE", "mechanical": 0, "ebike": 0, "total": 0, "docks_available": 25, "bikes_disabled": 0, "docks_disabled": 0, "pct_bikes": 0.0, "pct_docks_free": 100.0}}, {"type": "Feature", "geometry": {"type": "Point", "coordinates": [2.1609345, 41.4035608]}, "properties": {"station_id": "226", "name": "C/ MONTMANY, 1", "capacity": 27, "config": "ELECTRICBIKESTATION", "barri_codi": "0631", "barri_nom": "la Vila de Gràcia", "district": "Gràcia", "status": "IN_SERVICE", "mechanical": 0, "ebike": 7, "total": 6, "docks_available": 12, "bikes_disabled": 8, "docks_disabled": 0, "pct_bikes": 22.22, "pct_docks_free": 44.44}}, {"type": "Feature", "geometry": {"type": "Point", "coordinates": [2.1586704, 41.4078456]}, "properties": {"station_id": "227", "name": "C/ DEL TORRENT DE LES FLORS, 102", "capacity": 18, "config": "ELECTRICBIKESTATION", "barri_codi": "0631", "barri_nom": "la Vila de Gràcia", "district": "Gràcia", "status": "IN_SERVICE", "mechanical": 0, "ebike": 7, "total": 7, "docks_available": 8, "bikes_disabled": 3, "docks_disabled": 0, "pct_bikes": 38.89, "pct_docks_free": 44.44}}, {"type": "Feature", "geometry": {"type": "Point", "coordinates": [2.1558354, 41.4068417]}, "properties": {"station_id": "228", "name": "PL. DEL NORD, 5", "capacity": 21, "config": "ELECTRICBIKESTATION", "barri_codi": "0631", "barri_nom": "la Vila de Gràcia", "district": "Gràcia", "status": "IN_SERVICE", "mechanical": 0, "ebike": 6, "total": 6, "docks_available": 9, "bikes_disabled": 6, "docks_disabled": 0, "pct_bikes": 28.57, "pct_docks_free": 42.86}}, {"type": "Feature", "geometry": {"type": "Point", "coordinates": [2.1569161, 41.4050968]}, "properties": {"station_id": "229", "name": "C/ DE LA SANTACREU, 2 (PL. DE LA VIRREINA)", "capacity": 28, "config": "ELECTRICBIKESTATION", "barri_codi": "0631", "barri_nom": "la Vila de Gràcia", "district": "Gràcia", "status": "IN_SERVICE", "mechanical": 1, "ebike": 13, "total": 14, "docks_available": 8, "bikes_disabled": 3, "docks_disabled": 0, "pct_bikes": 50.0, "pct_docks_free": 28.57}}, {"type": "Feature", "geometry": {"type": "Point", "coordinates": [2.1717397, 41.3924661]}, "properties": {"station_id": "23", "name": "C/ BRUC, 45", "capacity": 27, "config": "ELECTRICBIKESTATION", "barri_codi": "0207", "barri_nom": "la Dreta de l'Eixample", "district": "Eixample", "status": "IN_SERVICE", "mechanical": 2, "ebike": 0, "total": 2, "docks_available": 22, "bikes_disabled": 3, "docks_disabled": 0, "pct_bikes": 7.41, "pct_docks_free": 81.48}}, {"type": "Feature", "geometry": {"type": "Point", "coordinates": [2.1517977, 41.4059356]}, "properties": {"station_id": "230", "name": "C/ DE NIL FABRA, 16-20", "capacity": 26, "config": "ELECTRICBIKESTATION", "barri_codi": "0631", "barri_nom": "la Vila de Gràcia", "district": "Gràcia", "status": "IN_SERVICE", "mechanical": 0, "ebike": 4, "total": 4, "docks_available": 19, "bikes_disabled": 3, "docks_disabled": 0, "pct_bikes": 15.38, "pct_docks_free": 73.08}}, {"type": "Feature", "geometry": {"type": "Point", "coordinates": [2.16400285, 41.4092005]}, "properties": {"station_id": "231", "name": "C/ PAU ALSINA, 54", "capacity": 24, "config": "ELECTRICBIKESTATION", "barri_codi": "0632", "barri_nom": "el Camp d'en Grassot i Gràcia Nova", "district": "Gràcia", "status": "IN_SERVICE", "mechanical": 0, "ebike": 2, "total": 1, "docks_available": 18, "bikes_disabled": 4, "docks_disabled": 0, "pct_bikes": 4.17, "pct_docks_free": 75.0}}, {"type": "Feature", "geometry": {"type": "Point", "coordinates": [2.1730255457161096, 41.37449997033759]}, "properties": {"station_id": "232", "name": "C/ PALAUDÀRIES, 2", "capacity": 27, "config": "ELECTRICBIKESTATION", "barri_codi": "0311", "barri_nom": "el Poble-sec", "district": "Sants-Montjuïc", "status": "IN_SERVICE", "mechanical": 3, "ebike": 1, "total": 4, "docks_available": 22, "bikes_disabled": 1, "docks_disabled": 0, "pct_bikes": 14.81, "pct_docks_free": 81.48}}, {"type": "Feature", "geometry": {"type": "Point", "coordinates": [2.1667829, 41.3719688]}, "properties": {"station_id": "233", "name": "C/ NOU DE LA RAMBLA, 164", "capacity": 27, "config": "ELECTRICBIKESTATION", "barri_codi": "0311", "barri_nom": "el Poble-sec", "district": "Sants-Montjuïc", "status": "IN_SERVICE", "mechanical": 1, "ebike": 7, "total": 8, "docks_available": 8, "bikes_disabled": 9, "docks_disabled": 1, "pct_bikes": 29.63, "pct_docks_free": 29.63}}, {"type": "Feature", "geometry": {"type": "Point", "coordinates": [2.162203, 41.371532]}, "properties": {"station_id": "234", "name": "PG. DE L´EXPOSICIÓ,34", "capacity": 23, "config": "ELECTRICBIKESTATION", "barri_codi": "0311", "barri_nom": "el Poble-sec", "district": "Sants-Montjuïc", "status": "IN_SERVICE", "mechanical": 0, "ebike": 19, "total": 19, "docks_available": 1, "bikes_disabled": 3, "docks_disabled": 0, "pct_bikes": 82.61, "pct_docks_free": 4.35}}, {"type": "Feature", "geometry": {"type": "Point", "coordinates": [2.1658972, 41.3751767]}, "properties": {"station_id": "235", "name": "AV. PARAL.LEL, 98", "capacity": 21, "config": "ELECTRICBIKESTATION", "barri_codi": "0210", "barri_nom": "Sant Antoni", "district": "Eixample", "status": "IN_SERVICE", "mechanical": 12, "ebike": 3, "total": 15, "docks_available": 3, "bikes_disabled": 1, "docks_disabled": 0, "pct_bikes": 71.43, "pct_docks_free": 14.29}}, {"type": "Feature", "geometry": {"type": "Point", "coordinates": [2.1523091, 41.3751161]}, "properties": {"station_id": "236", "name": "AV. PARAL.LEL, 194", "capacity": 26, "config": "ELECTRICBIKESTATION", "barri_codi": "0210", "barri_nom": "Sant Antoni", "district": "Eixample", "status": "IN_SERVICE", "mechanical": 2, "ebike": 3, "total": 5, "docks_available": 18, "bikes_disabled": 3, "docks_disabled": 0, "pct_bikes": 19.23, "pct_docks_free": 69.23}}, {"type": "Feature", "geometry": {"type": "Point", "coordinates": [2.1539198, 41.3727426]}, "properties": {"station_id": "237", "name": "C/ RIUS I TAULET, 4", "capacity": 27, "config": "ELECTRICBIKESTATION", "barri_codi": "0311", "barri_nom": "el Poble-sec", "district": "Sants-Montjuïc", "status": "IN_SERVICE", "mechanical": 0, "ebike": 6, "total": 6, "docks_available": 20, "bikes_disabled": 0, "docks_disabled": 0, "pct_bikes": 22.22, "pct_docks_free": 74.07}}, {"type": "Feature", "geometry": {"type": "Point", "coordinates": [2.1908473, 41.4158807]}, "properties": {"station_id": "238", "name": "C/ ESPRONCEDA, 298", "capacity": 27, "config": "ELECTRICBIKESTATION", "barri_codi": "0963", "barri_nom": "Navas", "district": "Sant Andreu", "status": "IN_SERVICE", "mechanical": 9, "ebike": 2, "total": 11, "docks_available": 10, "bikes_disabled": 5, "docks_disabled": 1, "pct_bikes": 40.74, "pct_docks_free": 37.04}}, {"type": "Feature", "geometry": {"type": "Point", "coordinates": [2.1844769, 41.4172922]}, "properties": {"station_id": "239", "name": "C/ INDÚSTRIA, 329", "capacity": 35, "config": "ELECTRICBIKESTATION", "barri_codi": "0963", "barri_nom": "Navas", "district": "Sant Andreu", "status": "IN_SERVICE", "mechanical": 6, "ebike": 6, "total": 12, "docks_available": 20, "bikes_disabled": 3, "docks_disabled": 0, "pct_bikes": 34.29, "pct_docks_free": 57.14}}, {"type": "Feature", "geometry": {"type": "Point", "coordinates": [2.1788855, 41.4005784]}, "properties": {"station_id": "24", "name": "C/ MARINA, 199", "capacity": 40, "config": "ELECTRICBIKESTATION", "barri_codi": "0205", "barri_nom": "el Fort Pienc", "district": "Eixample", "status": "IN_SERVICE", "mechanical": 1, "ebike": 0, "total": 1, "docks_available": 36, "bikes_disabled": 3, "docks_disabled": 0, "pct_bikes": 2.5, "pct_docks_free": 90.0}}, {"type": "Feature", "geometry": {"type": "Point", "coordinates": [2.1877153, 41.4175595]}, "properties": {"station_id": "240", "name": "C/ JOSEP ESTIVILL, 32", "capacity": 27, "config": "ELECTRICBIKESTATION", "barri_codi": "0963", "barri_nom": "Navas", "district": "Sant Andreu", "status": "IN_SERVICE", "mechanical": 3, "ebike": 13, "total": 16, "docks_available": 6, "bikes_disabled": 5, "docks_disabled": 0, "pct_bikes": 59.26, "pct_docks_free": 22.22}}, {"type": "Feature", "geometry": {"type": "Point", "coordinates": [2.18018, 41.419178]}, "properties": {"station_id": "241", "name": "C/ TEODOR LLORENTE, 1", "capacity": 33, "config": "ELECTRICBIKESTATION", "barri_codi": "0735", "barri_nom": "el Guinardó", "district": "Horta-Guinardó", "status": "IN_SERVICE", "mechanical": 14, "ebike": 4, "total": 18, "docks_available": 12, "bikes_disabled": 3, "docks_disabled": 0, "pct_bikes": 54.55, "pct_docks_free": 36.36}}, {"type": "Feature", "geometry": {"type": "Point", "coordinates": [2.1773157, 41.4244527]}, "properties": {"station_id": "242", "name": "C/ RAMON ALBÓ, 1", "capacity": 26, "config": "ELECTRICBIKESTATION", "barri_codi": "0962", "barri_nom": "el Congrés i els Indians", "district": "Sant Andreu", "status": "IN_SERVICE", "mechanical": 0, "ebike": 6, "total": 6, "docks_available": 15, "bikes_disabled": 5, "docks_disabled": 0, "pct_bikes": 23.08, "pct_docks_free": 57.69}}, {"type": "Feature", "geometry": {"type": "Point", "coordinates": [2.1812399, 41.4239719]}, "properties": {"station_id": "243", "name": "C/ ALEXANDRE GALÍ, 1-5", "capacity": 27, "config": "ELECTRICBIKESTATION", "barri_codi": "0962", "barri_nom": "el Congrés i els Indians", "district": "Sant Andreu", "status": "IN_SERVICE", "mechanical": 1, "ebike": 3, "total": 4, "docks_available": 20, "bikes_disabled": 3, "docks_disabled": 0, "pct_bikes": 14.81, "pct_docks_free": 74.07}}, {"type": "Feature", "geometry": {"type": "Point", "coordinates": [2.1786224, 41.426925]}, "properties": {"station_id": "244", "name": "C/ FELIP II, 214", "capacity": 27, "config": "ELECTRICBIKESTATION", "barri_codi": "0962", "barri_nom": "el Congrés i els Indians", "district": "Sant Andreu", "status": "IN_SERVICE", "mechanical": 10, "ebike": 5, "total": 15, "docks_available": 6, "bikes_disabled": 6, "docks_disabled": 0, "pct_bikes": 55.56, "pct_docks_free": 22.22}}, {"type": "Feature", "geometry": {"type": "Point", "coordinates": [2.1849107, 41.4219291]}, "properties": {"station_id": "247", "name": "C/ FELIPE II, 112", "capacity": 32, "config": "ELECTRICBIKESTATION", "barri_codi": "0961", "barri_nom": "la Sagrera", "district": "Sant Andreu", "status": "IN_SERVICE", "mechanical": 5, "ebike": 5, "total": 9, "docks_available": 21, "bikes_disabled": 1, "docks_disabled": 0, "pct_bikes": 28.12, "pct_docks_free": 65.62}}, {"type": "Feature", "geometry": {"type": "Point", "coordinates": [2.1904005, 41.4182129]}, "properties": {"station_id": "248", "name": "C/ PALÈNCIA, 31", "capacity": 27, "config": "ELECTRICBIKESTATION", "barri_codi": "0961", "barri_nom": "la Sagrera", "district": "Sant Andreu", "status": "IN_SERVICE", "mechanical": 11, "ebike": 3, "total": 14, "docks_available": 12, "bikes_disabled": 1, "docks_disabled": 0, "pct_bikes": 51.85, "pct_docks_free": 44.44}}, {"type": "Feature", "geometry": {"type": "Point", "coordinates": [2.1872818, 41.4250835]}, "properties": {"station_id": "249", "name": "C/ ANTILLES, 8", "capacity": 27, "config": "ELECTRICBIKESTATION", "barri_codi": "0961", "barri_nom": "la Sagrera", "district": "Sant Andreu", "status": "IN_SERVICE", "mechanical": 12, "ebike": 1, "total": 13, "docks_available": 11, "bikes_disabled": 3, "docks_disabled": 0, "pct_bikes": 48.15, "pct_docks_free": 40.74}}, {"type": "Feature", "geometry": {"type": "Point", "coordinates": [2.1681961, 41.3954041]}, "properties": {"station_id": "25", "name": "C/ BRUC, 102", "capacity": 21, "config": "ELECTRICBIKESTATION", "barri_codi": "0207", "barri_nom": "la Dreta de l'Eixample", "district": "Eixample", "status": "IN_SERVICE", "mechanical": 0, "ebike": 0, "total": 0, "docks_available": 20, "bikes_disabled": 1, "docks_disabled": 0, "pct_bikes": 0.0, "pct_docks_free": 95.24}}, {"type": "Feature", "geometry": {"type": "Point", "coordinates": [2.191206, 41.4258248]}, "properties": {"station_id": "250", "name": "C/ PORTUGAL, 3", "capacity": 27, "config": "ELECTRICBIKESTATION", "barri_codi": "0961", "barri_nom": "la Sagrera", "district": "Sant Andreu", "status": "IN_SERVICE", "mechanical": 5, "ebike": 0, "total": 5, "docks_available": 15, "bikes_disabled": 7, "docks_disabled": 0, "pct_bikes": 18.52, "pct_docks_free": 55.56}}, {"type": "Feature", "geometry": {"type": "Point", "coordinates": [2.1852073, 41.4253643]}, "properties": {"station_id": "251", "name": "C/ CARDENAL TEDESCHINI, 13", "capacity": 33, "config": "ELECTRICBIKESTATION", "barri_codi": "0961", "barri_nom": "la Sagrera", "district": "Sant Andreu", "status": "IN_SERVICE", "mechanical": 4, "ebike": 0, "total": 4, "docks_available": 25, "bikes_disabled": 4, "docks_disabled": 0, "pct_bikes": 12.12, "pct_docks_free": 75.76}}, {"type": "Feature", "geometry": {"type": "Point", "coordinates": [2.1932159, 41.4298991]}, "properties": {"station_id": "252", "name": "RAMBLA DE L'ONZE DE SETEMBRE, 31", "capacity": 33, "config": "ELECTRICBIKESTATION", "barri_codi": "0960", "barri_nom": "Sant Andreu", "district": "Sant Andreu", "status": "IN_SERVICE", "mechanical": 16, "ebike": 1, "total": 17, "docks_available": 5, "bikes_disabled": 10, "docks_disabled": 0, "pct_bikes": 51.52, "pct_docks_free": 15.15}}, {"type": "Feature", "geometry": {"type": "Point", "coordinates": [2.1922011, 41.4298614]}, "properties": {"station_id": "253", "name": "C/ ONZE DE SETEMBRE, 37-39", "capacity": 27, "config": "ELECTRICBIKESTATION", "barri_codi": "0960", "barri_nom": "Sant Andreu", "district": "Sant Andreu", "status": "IN_SERVICE", "mechanical": 14, "ebike": 9, "total": 23, "docks_available": 2, "bikes_disabled": 2, "docks_disabled": 0, "pct_bikes": 85.19, "pct_docks_free": 7.41}}, {"type": "Feature", "geometry": {"type": "Point", "coordinates": [2.190246, 41.4299999]}, "properties": {"station_id": "254", "name": "RAMBLA DE L'ONZE DE SETEMBRE, 69", "capacity": 26, "config": "ELECTRICBIKESTATION", "barri_codi": "0960", "barri_nom": "Sant Andreu", "district": "Sant Andreu", "status": "IN_SERVICE", "mechanical": 1, "ebike": 18, "total": 19, "docks_available": 4, "bikes_disabled": 3, "docks_disabled": 0, "pct_bikes": 73.08, "pct_docks_free": 15.38}}, {"type": "Feature", "geometry": {"type": "Point", "coordinates": [2.18579, 41.4315]}, "properties": {"station_id": "255", "name": "C/ IRLANDA, 34", "capacity": 15, "config": "ELECTRICBIKESTATION", "barri_codi": "0960", "barri_nom": "Sant Andreu", "district": "Sant Andreu", "status": "IN_SERVICE", "mechanical": 0, "ebike": 1, "total": 1, "docks_available": 9, "bikes_disabled": 6, "docks_disabled": 0, "pct_bikes": 6.67, "pct_docks_free": 60.0}}, {"type": "Feature", "geometry": {"type": "Point", "coordinates": [2.1894423, 41.4361251]}, "properties": {"station_id": "256", "name": "C/ MALATS, 28-30", "capacity": 31, "config": "ELECTRICBIKESTATION", "barri_codi": "0960", "barri_nom": "Sant Andreu", "district": "Sant Andreu", "status": "IN_SERVICE", "mechanical": 13, "ebike": 2, "total": 15, "docks_available": 13, "bikes_disabled": 3, "docks_disabled": 0, "pct_bikes": 48.39, "pct_docks_free": 41.94}}, {"type": "Feature", "geometry": {"type": "Point", "coordinates": [2.1896502, 41.433934]}, "properties": {"station_id": "257", "name": "C/ SANT ADRIÀ, 2-8", "capacity": 23, "config": "ELECTRICBIKESTATION", "barri_codi": "0960", "barri_nom": "Sant Andreu", "district": "Sant Andreu", "status": "IN_SERVICE", "mechanical": 4, "ebike": 8, "total": 12, "docks_available": 10, "bikes_disabled": 1, "docks_disabled": 0, "pct_bikes": 52.17, "pct_docks_free": 43.48}}, {"type": "Feature", "geometry": {"type": "Point", "coordinates": [2.192957641716178, 41.441986663902426]}, "properties": {"station_id": "258", "name": "C/ FERNANDO PESSOA, 41", "capacity": 26, "config": "ELECTRICBIKESTATION", "barri_codi": "0960", "barri_nom": "Sant Andreu", "district": "Sant Andreu", "status": "IN_SERVICE", "mechanical": 3, "ebike": 0, "total": 3, "docks_available": 21, "bikes_disabled": 2, "docks_disabled": 0, "pct_bikes": 11.54, "pct_docks_free": 80.77}}, {"type": "Feature", "geometry": {"type": "Point", "coordinates": [2.1858025, 41.4391174]}, "properties": {"station_id": "259", "name": "C/ DE BARTRINA, 14", "capacity": 24, "config": "ELECTRICBIKESTATION", "barri_codi": "0960", "barri_nom": "Sant Andreu", "district": "Sant Andreu", "status": "IN_SERVICE", "mechanical": 3, "ebike": 1, "total": 4, "docks_available": 16, "bikes_disabled": 2, "docks_disabled": 0, "pct_bikes": 16.67, "pct_docks_free": 66.67}}, {"type": "Feature", "geometry": {"type": "Point", "coordinates": [2.1820722, 41.4071692]}, "properties": {"station_id": "26", "name": "C/ DOS DE MAIG, 230-232", "capacity": 18, "config": "ELECTRICBIKESTATION", "barri_codi": "1064", "barri_nom": "el Camp de l'Arpa del Clot", "district": "Sant Martí", "status": "IN_SERVICE", "mechanical": 3, "ebike": 12, "total": 15, "docks_available": 0, "bikes_disabled": 3, "docks_disabled": 0, "pct_bikes": 83.33, "pct_docks_free": 0.0}}, {"type": "Feature", "geometry": {"type": "Point", "coordinates": [2.1920873, 41.4356895]}, "properties": {"station_id": "260", "name": "CARRER DEL CINCA, 7", "capacity": 27, "config": "ELECTRICBIKESTATION", "barri_codi": "0960", "barri_nom": "Sant Andreu", "district": "Sant Andreu", "status": "IN_SERVICE", "mechanical": 2, "ebike": 13, "total": 15, "docks_available": 7, "bikes_disabled": 5, "docks_disabled": 0, "pct_bikes": 55.56, "pct_docks_free": 25.93}}, {"type": "Feature", "geometry": {"type": "Point", "coordinates": [2.1606534, 41.3821314]}, "properties": {"station_id": "261", "name": "C/ VILLARROEL, 39", "capacity": 32, "config": "ELECTRICBIKESTATION", "barri_codi": "0210", "barri_nom": "Sant Antoni", "district": "Eixample", "status": "IN_SERVICE", "mechanical": 3, "ebike": 0, "total": 3, "docks_available": 25, "bikes_disabled": 4, "docks_disabled": 0, "pct_bikes": 9.38, "pct_docks_free": 78.12}}, {"type": "Feature", "geometry": {"type": "Point", "coordinates": [2.1516210083711993, 41.3790954665734]}, "properties": {"station_id": "262", "name": "C/ ENTENÇA, 70", "capacity": 24, "config": "ELECTRICBIKESTATION", "barri_codi": "0209", "barri_nom": "la Nova Esquerra de l'Eixample", "district": "Eixample", "status": "IN_SERVICE", "mechanical": 7, "ebike": 2, "total": 9, "docks_available": 11, "bikes_disabled": 4, "docks_disabled": 0, "pct_bikes": 37.5, "pct_docks_free": 45.83}}, {"type": "Feature", "geometry": {"type": "Point", "coordinates": [2.1910691, 41.4378773]}, "properties": {"station_id": "263", "name": "PG. TORRAS I BAGES, 29", "capacity": 20, "config": "ELECTRICBIKESTATION", "barri_codi": "0960", "barri_nom": "Sant Andreu", "district": "Sant Andreu", "status": "IN_SERVICE", "mechanical": 0, "ebike": 2, "total": 2, "docks_available": 16, "bikes_disabled": 2, "docks_disabled": 0, "pct_bikes": 10.0, "pct_docks_free": 80.0}}, {"type": "Feature", "geometry": {"type": "Point", "coordinates": [2.1953884, 41.4381892]}, "properties": {"station_id": "264", "name": "C/ FERRAN JUNOY, 10", "capacity": 33, "config": "ELECTRICBIKESTATION", "barri_codi": "0959", "barri_nom": "el Bon Pastor", "district": "Sant Andreu", "status": "IN_SERVICE", "mechanical": 4, "ebike": 7, "total": 11, "docks_available": 21, "bikes_disabled": 1, "docks_disabled": 0, "pct_bikes": 33.33, "pct_docks_free": 63.64}}, {"type": "Feature", "geometry": {"type": "Point", "coordinates": [2.1592566, 41.3847738]}, "properties": {"station_id": "265", "name": "C/ CASANOVA, 55", "capacity": 27, "config": "ELECTRICBIKESTATION", "barri_codi": "0208", "barri_nom": "l'Antiga Esquerra de l'Eixample", "district": "Eixample", "status": "IN_SERVICE", "mechanical": 2, "ebike": 2, "total": 3, "docks_available": 19, "bikes_disabled": 3, "docks_disabled": 1, "pct_bikes": 11.11, "pct_docks_free": 70.37}}, {"type": "Feature", "geometry": {"type": "Point", "coordinates": [2.183966, 41.427591]}, "properties": {"station_id": "266", "name": "C/ RIERA D'HORTA, 2", "capacity": 34, "config": "ELECTRICBIKESTATION", "barri_codi": "0962", "barri_nom": "el Congrés i els Indians", "district": "Sant Andreu", "status": "IN_SERVICE", "mechanical": 5, "ebike": 5, "total": 10, "docks_available": 17, "bikes_disabled": 7, "docks_disabled": 0, "pct_bikes": 29.41, "pct_docks_free": 50.0}}, {"type": "Feature", "geometry": {"type": "Point", "coordinates": [2.1906302, 41.4433647]}, "properties": {"station_id": "267", "name": "PG. TORRAS I BAGES, 129", "capacity": 24, "config": "ELECTRICBIKESTATION", "barri_codi": "0960", "barri_nom": "Sant Andreu", "district": "Sant Andreu", "status": "IN_SERVICE", "mechanical": 0, "ebike": 1, "total": 1, "docks_available": 23, "bikes_disabled": 0, "docks_disabled": 0, "pct_bikes": 4.17, "pct_docks_free": 95.83}}, {"type": "Feature", "geometry": {"type": "Point", "coordinates": [2.1929816, 41.4457195]}, "properties": {"station_id": "268", "name": "C/ FERNANDO PESSOA, 72", "capacity": 27, "config": "ELECTRICBIKESTATION", "barri_codi": "0960", "barri_nom": "Sant Andreu", "district": "Sant Andreu", "status": "IN_SERVICE", "mechanical": 2, "ebike": 0, "total": 2, "docks_available": 24, "bikes_disabled": 1, "docks_disabled": 0, "pct_bikes": 7.41, "pct_docks_free": 88.89}}, {"type": "Feature", "geometry": {"type": "Point", "coordinates": [2.19294, 41.448152]}, "properties": {"station_id": "269", "name": "VIA BARCINO, 105/107", "capacity": 20, "config": "ELECTRICBIKESTATION", "barri_codi": "0957", "barri_nom": "la Trinitat Vella", "district": "Sant Andreu", "status": "IN_SERVICE", "mechanical": 4, "ebike": 2, "total": 6, "docks_available": 13, "bikes_disabled": 1, "docks_disabled": 0, "pct_bikes": 30.0, "pct_docks_free": 65.0}}, {"type": "Feature", "geometry": {"type": "Point", "coordinates": [2.1646338, 41.3967524]}, "properties": {"station_id": "27", "name": "C/ PROVENÇA, 322", "capacity": 17, "config": "ELECTRICBIKESTATION", "barri_codi": "0207", "barri_nom": "la Dreta de l'Eixample", "district": "Eixample", "status": "IN_SERVICE", "mechanical": 0, "ebike": 2, "total": 2, "docks_available": 11, "bikes_disabled": 4, "docks_disabled": 0, "pct_bikes": 11.76, "pct_docks_free": 64.71}}, {"type": "Feature", "geometry": {"type": "Point", "coordinates": [2.1898372, 41.4486328]}, "properties": {"station_id": "270", "name": "CRTA. DE RIBES, 77 (TRINITAT VELLA)", "capacity": 27, "config": "ELECTRICBIKESTATION", "barri_codi": "0957", "barri_nom": "la Trinitat Vella", "district": "Sant Andreu", "status": "IN_SERVICE", "mechanical": 5, "ebike": 5, "total": 10, "docks_available": 11, "bikes_disabled": 5, "docks_disabled": 1, "pct_bikes": 37.04, "pct_docks_free": 40.74}}, {"type": "Feature", "geometry": {"type": "Point", "coordinates": [2.1922985, 41.45137]}, "properties": {"station_id": "271", "name": "VIA DE BÀRCINO, 54", "capacity": 21, "config": "ELECTRICBIKESTATION", "barri_codi": "0957", "barri_nom": "la Trinitat Vella", "district": "Sant Andreu", "status": "IN_SERVICE", "mechanical": 5, "ebike": 5, "total": 10, "docks_available": 11, "bikes_disabled": 0, "docks_disabled": 0, "pct_bikes": 47.62, "pct_docks_free": 52.38}}, {"type": "Feature", "geometry": {"type": "Point", "coordinates": [2.1842021, 41.4325013]}, "properties": {"station_id": "272", "name": "C/ CONCEPCIÓ ARENAL, 281", "capacity": 27, "config": "ELECTRICBIKESTATION", "barri_codi": "0960", "barri_nom": "Sant Andreu", "district": "Sant Andreu", "status": "IN_SERVICE", "mechanical": 2, "ebike": 1, "total": 3, "docks_available": 23, "bikes_disabled": 1, "docks_disabled": 0, "pct_bikes": 11.11, "pct_docks_free": 85.19}}, {"type": "Feature", "geometry": {"type": "Point", "coordinates": [2.1834174, 41.4304126]}, "properties": {"station_id": "273", "name": "AV. MERIDIANA, 404", "capacity": 35, "config": "ELECTRICBIKESTATION", "barri_codi": "0960", "barri_nom": "Sant Andreu", "district": "Sant Andreu", "status": "IN_SERVICE", "mechanical": 1, "ebike": 6, "total": 7, "docks_available": 24, "bikes_disabled": 3, "docks_disabled": 0, "pct_bikes": 20.0, "pct_docks_free": 68.57}}, {"type": "Feature", "geometry": {"type": "Point", "coordinates": [2.1849813, 41.4299201]}, "properties": {"station_id": "274", "name": "RAMBLA FABRA I PUIG, 67", "capacity": 32, "config": "ELECTRICBIKESTATION", "barri_codi": "0960", "barri_nom": "Sant Andreu", "district": "Sant Andreu", "status": "IN_SERVICE", "mechanical": 8, "ebike": 12, "total": 20, "docks_available": 10, "bikes_disabled": 2, "docks_disabled": 0, "pct_bikes": 62.5, "pct_docks_free": 31.25}}, {"type": "Feature", "geometry": {"type": "Point", "coordinates": [2.1821802, 41.43068]}, "properties": {"station_id": "275", "name": "AV. RIO DE JANEIRO, 3", "capacity": 32, "config": "ELECTRICBIKESTATION", "barri_codi": "0845", "barri_nom": "Porta", "district": "Nou Barris", "status": "IN_SERVICE", "mechanical": 1, "ebike": 0, "total": 1, "docks_available": 31, "bikes_disabled": 0, "docks_disabled": 0, "pct_bikes": 3.12, "pct_docks_free": 96.88}}, {"type": "Feature", "geometry": {"type": "Point", "coordinates": [2.1652216, 41.4121345]}, "properties": {"station_id": "276", "name": "PLAÇA ALFONS X EL SAVI / RONDA DEL GUIN", "capacity": 27, "config": "ELECTRICBIKESTATION", "barri_codi": "0733", "barri_nom": "el Baix Guinardó", "district": "Horta-Guinardó", "status": "IN_SERVICE", "mechanical": 0, "ebike": 2, "total": 2, "docks_available": 23, "bikes_disabled": 2, "docks_disabled": 0, "pct_bikes": 7.41, "pct_docks_free": 85.19}}, {"type": "Feature", "geometry": {"type": "Point", "coordinates": [2.1689962, 41.4082107]}, "properties": {"station_id": "277", "name": "TRAVESSERA DE GRÀCIA, 328", "capacity": 27, "config": "ELECTRICBIKESTATION", "barri_codi": "0733", "barri_nom": "el Baix Guinardó", "district": "Horta-Guinardó", "status": "IN_SERVICE", "mechanical": 7, "ebike": 5, "total": 12, "docks_available": 9, "bikes_disabled": 6, "docks_disabled": 0, "pct_bikes": 44.44, "pct_docks_free": 33.33}}, {"type": "Feature", "geometry": {"type": "Point", "coordinates": [2.1715285, 41.4098842]}, "properties": {"station_id": "278", "name": "TRAVESSERA DE GRÀCIA, 368", "capacity": 27, "config": "ELECTRICBIKESTATION", "barri_codi": "0733", "barri_nom": "el Baix Guinardó", "district": "Horta-Guinardó", "status": "IN_SERVICE", "mechanical": 1, "ebike": 6, "total": 7, "docks_available": 18, "bikes_disabled": 2, "docks_disabled": 0, "pct_bikes": 25.93, "pct_docks_free": 66.67}}, {"type": "Feature", "geometry": {"type": "Point", "coordinates": [2.1745567, 41.4158995]}, "properties": {"station_id": "279", "name": "C/ MAS CASANOVAS, 137", "capacity": 27, "config": "ELECTRICBIKESTATION", "barri_codi": "0735", "barri_nom": "el Guinardó", "district": "Horta-Guinardó", "status": "IN_SERVICE", "mechanical": 0, "ebike": 1, "total": 1, "docks_available": 21, "bikes_disabled": 5, "docks_disabled": 0, "pct_bikes": 3.7, "pct_docks_free": 77.78}}, {"type": "Feature", "geometry": {"type": "Point", "coordinates": [2.1706498, 41.4055143]}, "properties": {"station_id": "28", "name": "C/ SARDENYA, 362", "capacity": 23, "config": "ELECTRICBIKESTATION", "barri_codi": "0206", "barri_nom": "la Sagrada Família", "district": "Eixample", "status": "IN_SERVICE", "mechanical": 0, "ebike": 1, "total": 1, "docks_available": 18, "bikes_disabled": 4, "docks_disabled": 0, "pct_bikes": 4.35, "pct_docks_free": 78.26}}, {"type": "Feature", "geometry": {"type": "Point", "coordinates": [2.1777274, 41.4138664]}, "properties": {"station_id": "280", "name": "C/ SANT ANTONI Mª CLARET, 290-296", "capacity": 27, "config": "ELECTRICBIKESTATION", "barri_codi": "0735", "barri_nom": "el Guinardó", "district": "Horta-Guinardó", "status": "IN_SERVICE", "mechanical": 9, "ebike": 3, "total": 12, "docks_available": 13, "bikes_disabled": 2, "docks_disabled": 0, "pct_bikes": 44.44, "pct_docks_free": 48.15}}, {"type": "Feature", "geometry": {"type": "Point", "coordinates": [2.1763994, 41.4180789]}, "properties": {"station_id": "281", "name": "C/ D'ESCORNALBOU, 51", "capacity": 24, "config": "ELECTRICBIKESTATION", "barri_codi": "0735", "barri_nom": "el Guinardó", "district": "Horta-Guinardó", "status": "IN_SERVICE", "mechanical": 0, "ebike": 2, "total": 2, "docks_available": 21, "bikes_disabled": 1, "docks_disabled": 0, "pct_bikes": 8.33, "pct_docks_free": 87.5}}, {"type": "Feature", "geometry": {"type": "Point", "coordinates": [2.1659881, 41.4275514]}, "properties": {"station_id": "282", "name": "PG. FONT D´EN- FARGAS, 1", "capacity": 27, "config": "ELECTRICBIKESTATION", "barri_codi": "0736", "barri_nom": "la Font d'en Fargues", "district": "Horta-Guinardó", "status": "IN_SERVICE", "mechanical": 0, "ebike": 2, "total": 2, "docks_available": 23, "bikes_disabled": 2, "docks_disabled": 0, "pct_bikes": 7.41, "pct_docks_free": 85.19}}, {"type": "Feature", "geometry": {"type": "Point", "coordinates": [2.1617032, 41.4297231]}, "properties": {"station_id": "283", "name": "C/ FULTON, 1", "capacity": 20, "config": "ELECTRICBIKESTATION", "barri_codi": "0743", "barri_nom": "Horta", "district": "Horta-Guinardó", "status": "IN_SERVICE", "mechanical": 3, "ebike": 2, "total": 5, "docks_available": 15, "bikes_disabled": 0, "docks_disabled": 0, "pct_bikes": 25.0, "pct_docks_free": 75.0}}, {"type": "Feature", "geometry": {"type": "Point", "coordinates": [2.1314948, 41.389462]}, "properties": {"station_id": "284", "name": "AV. DIAGONAL, 652", "capacity": 27, "config": "ELECTRICBIKESTATION", "barri_codi": "0419", "barri_nom": "les Corts", "district": "Les Corts", "status": "IN_SERVICE", "mechanical": 0, "ebike": 0, "total": 0, "docks_available": 25, "bikes_disabled": 2, "docks_disabled": 0, "pct_bikes": 0.0, "pct_docks_free": 92.59}}, {"type": "Feature", "geometry": {"type": "Point", "coordinates": [2.186105, 41.4366708]}, "properties": {"station_id": "285", "name": "C/ MALATS, 98-100", "capacity": 16, "config": "ELECTRICBIKESTATION", "barri_codi": "0960", "barri_nom": "Sant Andreu", "district": "Sant Andreu", "status": "IN_SERVICE", "mechanical": 1, "ebike": 5, "total": 6, "docks_available": 8, "bikes_disabled": 2, "docks_disabled": 0, "pct_bikes": 37.5, "pct_docks_free": 50.0}}, {"type": "Feature", "geometry": {"type": "Point", "coordinates": [2.1913538, 41.4030225]}, "properties": {"station_id": "286", "name": "C/ BOLÍVIA, 76", "capacity": 19, "config": "ELECTRICBIKESTATION", "barri_codi": "1066", "barri_nom": "el Parc i la Llacuna del Poblenou", "district": "Sant Martí", "status": "IN_SERVICE", "mechanical": 16, "ebike": 2, "total": 18, "docks_available": 1, "bikes_disabled": 0, "docks_disabled": 0, "pct_bikes": 94.74, "pct_docks_free": 5.26}}, {"type": "Feature", "geometry": {"type": "Point", "coordinates": [2.1679313, 41.3890626]}, "properties": {"station_id": "287", "name": " GRAN VIA DE LES CORTS CATALANES , 632", "capacity": 16, "config": "ELECTRICBIKESTATION", "barri_codi": "0207", "barri_nom": "la Dreta de l'Eixample", "district": "Eixample", "status": "IN_SERVICE", "mechanical": 1, "ebike": 0, "total": 1, "docks_available": 12, "bikes_disabled": 3, "docks_disabled": 0, "pct_bikes": 6.25, "pct_docks_free": 75.0}}, {"type": "Feature", "geometry": {"type": "Point", "coordinates": [2.174444, 41.4296439]}, "properties": {"station_id": "288", "name": "PL. VIRREI AMAT", "capacity": 32, "config": "ELECTRICBIKESTATION", "barri_codi": "0844", "barri_nom": "Vilapicina i la Torre Llobeta", "district": "Nou Barris", "status": "IN_SERVICE", "mechanical": 7, "ebike": 8, "total": 14, "docks_available": 13, "bikes_disabled": 4, "docks_disabled": 0, "pct_bikes": 43.75, "pct_docks_free": 40.62}}, {"type": "Feature", "geometry": {"type": "Point", "coordinates": [2.1909952, 41.4166982]}, "properties": {"station_id": "289", "name": "C/ MÚRCIA, 64", "capacity": 27, "config": "ELECTRICBIKESTATION", "barri_codi": "0963", "barri_nom": "Navas", "district": "Sant Andreu", "status": "IN_SERVICE", "mechanical": 18, "ebike": 2, "total": 20, "docks_available": 5, "bikes_disabled": 2, "docks_disabled": 0, "pct_bikes": 74.07, "pct_docks_free": 18.52}}, {"type": "Feature", "geometry": {"type": "Point", "coordinates": [2.169941, 41.401061]}, "properties": {"station_id": "29", "name": "C/ PROVENÇA, 388-390", "capacity": 23, "config": "ELECTRICBIKESTATION", "barri_codi": "0207", "barri_nom": "la Dreta de l'Eixample", "district": "Eixample", "status": "IN_SERVICE", "mechanical": 0, "ebike": 3, "total": 1, "docks_available": 13, "bikes_disabled": 7, "docks_disabled": 0, "pct_bikes": 4.35, "pct_docks_free": 56.52}}, {"type": "Feature", "geometry": {"type": "Point", "coordinates": [2.1740962, 41.4373376]}, "properties": {"station_id": "290", "name": "PL. DELS JARDINS D'ALFÀBIA, 1", "capacity": 17, "config": "ELECTRICBIKESTATION", "barri_codi": "0845", "barri_nom": "Porta", "district": "Nou Barris", "status": "IN_SERVICE", "mechanical": 0, "ebike": 3, "total": 3, "docks_available": 11, "bikes_disabled": 3, "docks_disabled": 0, "pct_bikes": 17.65, "pct_docks_free": 64.71}}, {"type": "Feature", "geometry": {"type": "Point", "coordinates": [2.1751572, 41.426078]}, "properties": {"station_id": "291", "name": "C/ CUBELLES, 2", "capacity": 27, "config": "ELECTRICBIKESTATION", "barri_codi": "0844", "barri_nom": "Vilapicina i la Torre Llobeta", "district": "Nou Barris", "status": "IN_SERVICE", "mechanical": 0, "ebike": 0, "total": 0, "docks_available": 22, "bikes_disabled": 5, "docks_disabled": 0, "pct_bikes": 0.0, "pct_docks_free": 81.48}}, {"type": "Feature", "geometry": {"type": "Point", "coordinates": [2.1720191, 41.4300161]}, "properties": {"station_id": "292", "name": "C/ AMILCAR, 1", "capacity": 12, "config": "ELECTRICBIKESTATION", "barri_codi": "0844", "barri_nom": "Vilapicina i la Torre Llobeta", "district": "Nou Barris", "status": "IN_SERVICE", "mechanical": 0, "ebike": 0, "total": 0, "docks_available": 8, "bikes_disabled": 4, "docks_disabled": 0, "pct_bikes": 0.0, "pct_docks_free": 66.67}}, {"type": "Feature", "geometry": {"type": "Point", "coordinates": [2.1629889, 41.4283127]}, "properties": {"station_id": "293", "name": "C/ GRANOLLERS, 1", "capacity": 24, "config": "ELECTRICBIKESTATION", "barri_codi": "0743", "barri_nom": "Horta", "district": "Horta-Guinardó", "status": "IN_SERVICE", "mechanical": 0, "ebike": 0, "total": 0, "docks_available": 22, "bikes_disabled": 2, "docks_disabled": 0, "pct_bikes": 0.0, "pct_docks_free": 91.67}}, {"type": "Feature", "geometry": {"type": "Point", "coordinates": [2.1706752, 41.4363473]}, "properties": {"station_id": "294", "name": "SEU DEL DISTRICTE (NOU BARRIS)", "capacity": 24, "config": "ELECTRICBIKESTATION", "barri_codi": "0848", "barri_nom": "la Guineueta", "district": "Nou Barris", "status": "IN_SERVICE", "mechanical": 0, "ebike": 0, "total": 0, "docks_available": 24, "bikes_disabled": 0, "docks_disabled": 0, "pct_bikes": 0.0, "pct_docks_free": 100.0}}, {"type": "Feature", "geometry": {"type": "Point", "coordinates": [2.1716309, 41.433384]}, "properties": {"station_id": "295", "name": "C/ SANT ISCLE, 60", "capacity": 27, "config": "ELECTRICBIKESTATION", "barri_codi": "0846", "barri_nom": "el Turó de la Peira", "district": "Nou Barris", "status": "IN_SERVICE", "mechanical": 0, "ebike": 1, "total": 1, "docks_available": 23, "bikes_disabled": 3, "docks_disabled": 0, "pct_bikes": 3.7, "pct_docks_free": 85.19}}, {"type": "Feature", "geometry": {"type": "Point", "coordinates": [2.1841014, 41.4364887]}, "properties": {"station_id": "296", "name": "C/ DE ROSSELLÓ I PORCEL, 1 | AV. MERIDIANA", "capacity": 33, "config": "ELECTRICBIKESTATION", "barri_codi": "0845", "barri_nom": "Porta", "district": "Nou Barris", "status": "IN_SERVICE", "mechanical": 10, "ebike": 14, "total": 24, "docks_available": 6, "bikes_disabled": 3, "docks_disabled": 0, "pct_bikes": 72.73, "pct_docks_free": 18.18}}, {"type": "Feature", "geometry": {"type": "Point", "coordinates": [2.1767828, 41.4388223]}, "properties": {"station_id": "297", "name": "C/ TURÓ BLAU, 1-3", "capacity": 24, "config": "ELECTRICBIKESTATION", "barri_codi": "0852", "barri_nom": "la Prosperitat", "district": "Nou Barris", "status": "IN_SERVICE", "mechanical": 0, "ebike": 5, "total": 5, "docks_available": 18, "bikes_disabled": 1, "docks_disabled": 0, "pct_bikes": 20.83, "pct_docks_free": 75.0}}, {"type": "Feature", "geometry": {"type": "Point", "coordinates": [2.1817718, 41.4347233]}, "properties": {"station_id": "298", "name": "C/ ANDREU NIN, 22", "capacity": 33, "config": "ELECTRICBIKESTATION", "barri_codi": "0845", "barri_nom": "Porta", "district": "Nou Barris", "status": "IN_SERVICE", "mechanical": 1, "ebike": 2, "total": 3, "docks_available": 21, "bikes_disabled": 3, "docks_disabled": 0, "pct_bikes": 9.09, "pct_docks_free": 63.64}},